[
  {
    "id": 179882,
    "type": "searchagent",
    "name": "Bjørn-Helge Kurseth",
    "email": "bkurseth@yahoo.no",
    "lat": 62.38822,
    "lon": 6.5531,
    "radius": 1,
    "estatetype": "enebolig",
    "price_min": 1300000,
    "price_max": 1800000,
    "area_min": 130,
    "area_max": 190,
    "consent": "2016-09-19T18:29:56+02:00",
    "oppdragsaddresse": "Sørestrandvegen 720",
    "oppdragsnummer": 21160002,
    "agent": "Espen Garli",
    "office": "Sykkylven / Stranda"
  },
  {
    "id": 401669,
    "type": "searchagent",
    "name": "Stine Skodje",
    "email": "stineskodje@hotmail.no",
    "lat": 62.462936401367,
    "lon": 6.2585473060608,
    "radius": 1,
    "estatetype": "leilighet",
    "price_min": 2300000,
    "price_max": 3100000,
    "area_min": 50,
    "area_max": 80,
    "consent": "2020-03-24T10:15:13+01:00",
    "oppdragsaddresse": "Ratvikvegen 75A",
    "oppdragsnummer": 79200017,
    "agent": "Marianne Stenseth",
    "office": "Ålesund"
  },
  {
    "id": 401502,
    "type": "searchagent",
    "name": "Peter Sjølander",
    "email": "Peter.m.sjolander@gmail.com",
    "lat": 62.427787780762,
    "lon": 6.414882183075,
    "radius": 1,
    "estatetype": "enebolig",
    "price_min": 4700000,
    "price_max": 6200000,
    "area_min": 170,
    "area_max": 240,
    "consent": "2020-03-21T12:53:16+01:00",
    "oppdragsaddresse": "Brudeholmvegen 18",
    "oppdragsnummer": 79200018,
    "agent": "Marianne Stenseth",
    "office": "Ålesund"
  },
  {
    "id": 401250,
    "type": "searchagent",
    "name": "Rolf inge Brusdal",
    "email": "rolfingebrusdal@yahoo.no",
    "lat": 62.468605041504,
    "lon": 6.3690981864929,
    "radius": 1,
    "estatetype": "enebolig",
    "price_min": 2700000,
    "price_max": 3700000,
    "area_min": 90,
    "area_max": 140,
    "consent": "2020-03-17T16:14:12+01:00",
    "oppdragsaddresse": "Øvre Holen 22",
    "oppdragsnummer": 79190077,
    "agent": "Marianne Stenseth",
    "office": "Ålesund"
  },
  {
    "id": 399409,
    "type": "searchagent",
    "name": "Øyvind Dahle",
    "email": "oyvinddahle@hotmail.com",
    "lat": 62.476467132568,
    "lon": 6.251181602478,
    "radius": 1,
    "estatetype": "tomannsbolig",
    "price_min": 3600000,
    "price_max": 4900000,
    "area_min": 90,
    "area_max": 140,
    "consent": "2020-02-29T14:57:32+01:00",
    "oppdragsaddresse": "Myraledbakken 2A",
    "oppdragsnummer": 79200010,
    "agent": "Marianne Stenseth",
    "office": "Ålesund"
  },
  {
    "id": 400472,
    "type": "searchagent",
    "name": "Brage Bang Bjørkmo",
    "email": "bragebang@gmail.com",
    "lat": 62.476467132568,
    "lon": 6.251181602478,
    "radius": 1,
    "estatetype": "tomannsbolig",
    "price_min": 3600000,
    "price_max": 4900000,
    "area_min": 90,
    "area_max": 140,
    "consent": "2020-03-09T17:47:20+01:00",
    "oppdragsaddresse": "Myraledbakken 2A",
    "oppdragsnummer": 79200010,
    "agent": "Marianne Stenseth",
    "office": "Ålesund"
  },
  {
    "id": 400099,
    "type": "searchagent",
    "name": "Asbjørn Heggstad",
    "email": "a.heggstad@gmail.com",
    "lat": 62.46541595459,
    "lon": 6.3291578292847,
    "radius": 1,
    "estatetype": "rekkehus",
    "price_min": 3900000,
    "price_max": 5200000,
    "area_min": 100,
    "area_max": 150,
    "consent": "2020-03-06T15:58:45+01:00",
    "oppdragsaddresse": "Åsesletta 23A",
    "oppdragsnummer": 79200013,
    "agent": "Marianne Stenseth",
    "office": "Ålesund"
  },
  {
    "id": 397129,
    "type": "searchagent",
    "name": "Line Stenstad",
    "email": "lstenstad@hotmail.com",
    "lat": 62.472640991211,
    "lon": 6.1597375869751,
    "radius": 1,
    "estatetype": "leilighet",
    "price_min": 2600000,
    "price_max": 3500000,
    "area_min": 70,
    "area_max": 110,
    "consent": "2020-02-12T03:20:49+01:00",
    "oppdragsaddresse": "Parkgata 2A",
    "oppdragsnummer": 79190034,
    "agent": "Marianne Stenseth",
    "office": "Ålesund"
  },
  {
    "id": 398492,
    "type": "searchagent",
    "name": "Line Stenstad",
    "email": "lstenstad@hotmail.com",
    "lat": 62.463085174561,
    "lon": 6.2584643363953,
    "radius": 1,
    "estatetype": "leilighet",
    "price_min": 2300000,
    "price_max": 3200000,
    "area_min": 50,
    "area_max": 80,
    "consent": "2020-02-21T19:10:05+01:00",
    "oppdragsaddresse": "Ratvikvegen 81A",
    "oppdragsnummer": 79200011,
    "agent": "Marianne Stenseth",
    "office": "Ålesund"
  },
  {
    "id": 398495,
    "type": "searchagent",
    "name": "Line Stenstad",
    "email": "lstenstad@hotmail.com",
    "lat": 62.463085174561,
    "lon": 6.2584643363953,
    "radius": 1,
    "estatetype": "leilighet",
    "price_min": 2300000,
    "price_max": 3200000,
    "area_min": 50,
    "area_max": 80,
    "consent": "2020-02-21T19:10:22+01:00",
    "oppdragsaddresse": "Ratvikvegen 81A",
    "oppdragsnummer": 79200011,
    "agent": "Marianne Stenseth",
    "office": "Ålesund"
  },
  {
    "id": 399800,
    "type": "searchagent",
    "name": "Line Stenstad",
    "email": "lstenstad@hotmail.com",
    "lat": 62.471187591553,
    "lon": 6.2294268608093,
    "radius": 1,
    "estatetype": "leilighet",
    "price_min": 2400000,
    "price_max": 3300000,
    "area_min": 50,
    "area_max": 80,
    "consent": "2020-03-04T10:21:21+01:00",
    "oppdragsaddresse": "Kringsjåvegen 39",
    "oppdragsnummer": 79200009,
    "agent": "Arild Berentzen",
    "office": "Ålesund"
  },
  {
    "id": 399355,
    "type": "searchagent",
    "name": "Kristian Ramstad",
    "email": "Kristianramstad@hotmail.com",
    "lat": 62.408126831055,
    "lon": 6.5620198249817,
    "radius": 1,
    "estatetype": "enebolig",
    "price_min": 2000000,
    "price_max": 2800000,
    "area_min": 120,
    "area_max": 180,
    "consent": "2020-02-28T21:05:47+01:00",
    "oppdragsaddresse": "Fauskevegen 143",
    "oppdragsnummer": 21200005,
    "agent": "Espen Garli",
    "office": "Sykkylven / Stranda"
  },
  {
    "id": 399352,
    "type": "searchagent",
    "name": "Bent Ramstad",
    "email": "brams.br@gmail.com",
    "lat": 62.408126831055,
    "lon": 6.5620198249817,
    "radius": 1,
    "estatetype": "enebolig",
    "price_min": 2000000,
    "price_max": 2800000,
    "area_min": 120,
    "area_max": 180,
    "consent": "2020-02-28T20:57:28+01:00",
    "oppdragsaddresse": "Fauskevegen 143",
    "oppdragsnummer": 21200005,
    "agent": "Espen Garli",
    "office": "Sykkylven / Stranda"
  },
  {
    "id": 399158,
    "type": "searchagent",
    "name": "Robin Mansfield",
    "email": "robin.mansfield@hotmail.com",
    "lat": 62.472756842676,
    "lon": 6.1523061444484,
    "radius": 0.4,
    "estatetype": "leilighet",
    "price_min": 4000000,
    "price_max": 6500000,
    "area_min": 80,
    "area_max": 10001,
    "consent": "2020-02-27T12:02:30+01:00"
  },
  {
    "id": 398289,
    "type": "searchagent",
    "name": "Lars-Thørner Woie",
    "email": "larsthornerwoie@gmail.com",
    "lat": 62.313442230225,
    "lon": 6.9409680366516,
    "radius": 1,
    "estatetype": "enebolig",
    "price_min": 600000,
    "price_max": 1000000,
    "area_min": 130,
    "area_max": 190,
    "consent": "2020-02-20T16:37:36+01:00",
    "oppdragsaddresse": "Movegen 10",
    "oppdragsnummer": 21190032,
    "agent": "Lars Hellevik",
    "office": "Sykkylven / Stranda"
  },
  {
    "id": 313808,
    "type": "searchagent",
    "name": "Anne-Berit Salen",
    "email": "abs@tafjord.no",
    "lat": 62.344898223877,
    "lon": 6.7803001403809,
    "radius": 1,
    "estatetype": "hytte",
    "price_min": 1700000,
    "price_max": 2300000,
    "area_min": 50,
    "area_max": 80,
    "consent": "2018-10-05T14:58:49+02:00",
    "oppdragsaddresse": "Tudalsbrekka",
    "oppdragsnummer": 21180059,
    "agent": "Lars Hellevik",
    "office": "Sykkylven / Stranda"
  },
  {
    "id": 239771,
    "type": "searchagent",
    "name": "Anne-Berit Salen",
    "email": "abs@tafjord.no",
    "lat": 62.358219146729,
    "lon": 6.8310446739197,
    "radius": 1,
    "estatetype": "fritidseiendom",
    "price_min": 1300000,
    "price_max": 1800000,
    "area_min": 40,
    "area_max": 70,
    "consent": "2018-01-12T09:02:45+01:00",
    "oppdragsaddresse": "Rishaugen (Fjellsætra)",
    "oppdragsnummer": 21170089,
    "agent": "Lars Hellevik",
    "office": "Sykkylven / Stranda"
  },
  {
    "id": 246979,
    "type": "searchagent",
    "name": "Anne-Berit Salen",
    "email": "abs@tafjord.no",
    "lat": 62.3337059021,
    "lon": 6.5942039489746,
    "radius": 1,
    "estatetype": "fritidseiendom",
    "price_min": 2300000,
    "price_max": 3100000,
    "area_min": 50,
    "area_max": 80,
    "consent": "2018-02-22T09:46:29+01:00",
    "oppdragsaddresse": "Nysætervatnet Hyttegrend - seksjon 15",
    "oppdragsnummer": 21180006,
    "agent": "Espen Garli",
    "office": "Sykkylven / Stranda"
  },
  {
    "id": 90138,
    "type": "searchagent",
    "name": "Anne-Berit Salen",
    "email": "abs@tafjord.no",
    "lat": 62.3337059021,
    "lon": 6.5942039489746,
    "radius": 1,
    "estatetype": "fritidseiendom",
    "price_min": 2200000,
    "price_max": 3000000,
    "area_min": 50,
    "area_max": 80,
    "consent": "2018-11-29T12:52:07+01:00",
    "oppdragsaddresse": "Nysætervatnet Hyttegrend - seksjon 1",
    "oppdragsnummer": 21180003,
    "agent": "Espen Garli",
    "office": "Sykkylven / Stranda"
  },
  {
    "id": 311773,
    "type": "searchagent",
    "name": "Anne-Berit Salen",
    "email": "abs@tafjord.no",
    "lat": 62.344898223877,
    "lon": 6.7803001403809,
    "radius": 1,
    "estatetype": "hytte",
    "price_min": 1700000,
    "price_max": 2300000,
    "area_min": 50,
    "area_max": 80,
    "consent": "2018-09-26T08:23:35+02:00",
    "oppdragsaddresse": "Tudalsbrekka",
    "oppdragsnummer": 21180059,
    "agent": "Lars Hellevik",
    "office": "Sykkylven / Stranda"
  },
  {
    "id": 395654,
    "type": "searchagent",
    "name": "Anne-Berit Salen",
    "email": "abs@tafjord.no",
    "lat": 62.340293884277,
    "lon": 6.7715849876404,
    "radius": 1,
    "estatetype": "fritidseiendom",
    "price_min": 2300000,
    "price_max": 3100000,
    "area_min": 60,
    "area_max": 100,
    "consent": "2020-01-31T08:05:30+01:00",
    "oppdragsaddresse": "Fjellsætra",
    "oppdragsnummer": 21190059,
    "agent": "Espen Garli",
    "office": "Sykkylven / Stranda"
  },
  {
    "id": 395594,
    "type": "searchagent",
    "name": "Tarjei Aase Omenås",
    "email": "tar_jei@hotmail.com",
    "lat": 62.474155426025,
    "lon": 6.1596956253052,
    "radius": 1,
    "estatetype": "leilighet",
    "price_min": 2500000,
    "price_max": 3300000,
    "area_min": 70,
    "area_max": 110,
    "consent": "2020-01-30T15:36:59+01:00",
    "oppdragsaddresse": "Einarvikgata 10",
    "oppdragsnummer": 79200003,
    "agent": "Arild Berentzen",
    "office": "Ålesund"
  },
  {
    "id": 395266,
    "type": "searchagent",
    "name": "Anders Longva",
    "email": "anders.longva@bring.com",
    "lat": 62.468704223633,
    "lon": 6.1895527839661,
    "radius": 1,
    "estatetype": "leilighet",
    "price_min": 3700000,
    "price_max": 5000000,
    "area_min": 70,
    "area_max": 120,
    "consent": "2020-01-28T23:36:31+01:00",
    "oppdragsaddresse": "Sjømannsvegen 17C",
    "oppdragsnummer": 79190067,
    "agent": "Marianne Stenseth",
    "office": "Ålesund"
  },
  {
    "id": 391567,
    "type": "searchagent",
    "name": "Harald Kalland",
    "email": "kalland91@gmail.com",
    "lat": 62.424610137939,
    "lon": 6.4043011665344,
    "radius": 1,
    "estatetype": "tomannsbolig",
    "price_min": 4300000,
    "price_max": 5700000,
    "area_min": 110,
    "area_max": 160,
    "consent": "2020-01-13T23:19:24+01:00",
    "oppdragsaddresse": "Skråvikvegen 24B",
    "oppdragsnummer": 79190103,
    "agent": "Marianne Stenseth",
    "office": "Ålesund"
  },
  {
    "id": 392153,
    "type": "searchagent",
    "name": "Morten Lyngsmo",
    "email": "Mlyngsmo@outlook.com",
    "lat": 62.424610137939,
    "lon": 6.4043011665344,
    "radius": 1,
    "estatetype": "tomannsbolig",
    "price_min": 4300000,
    "price_max": 5700000,
    "area_min": 110,
    "area_max": 160,
    "consent": "2020-01-19T14:52:21+01:00",
    "oppdragsaddresse": "Skråvikvegen 24B",
    "oppdragsnummer": 79190103,
    "agent": "Marianne Stenseth",
    "office": "Ålesund"
  },
  {
    "id": 393095,
    "type": "searchagent",
    "name": "Morten Lyngsmo",
    "email": "Mlyngsmo@outlook.com",
    "lat": 62.424610137939,
    "lon": 6.4043011665344,
    "radius": 1,
    "estatetype": "tomannsbolig",
    "price_min": 4300000,
    "price_max": 5700000,
    "area_min": 110,
    "area_max": 160,
    "consent": "2020-01-20T22:44:19+01:00",
    "oppdragsaddresse": "Skråvikvegen 24B",
    "oppdragsnummer": 79190103,
    "agent": "Marianne Stenseth",
    "office": "Ålesund"
  },
  {
    "id": 391990,
    "type": "searchagent",
    "name": "simon antonsen",
    "email": "simon.antonsen@hotmail.com",
    "lat": 62.424610137939,
    "lon": 6.4043011665344,
    "radius": 1,
    "estatetype": "tomannsbolig",
    "price_min": 4300000,
    "price_max": 5700000,
    "area_min": 110,
    "area_max": 160,
    "consent": "2020-01-17T19:28:25+01:00",
    "oppdragsaddresse": "Skråvikvegen 24B",
    "oppdragsnummer": 79190103,
    "agent": "Marianne Stenseth",
    "office": "Ålesund"
  },
  {
    "id": 391811,
    "type": "searchagent",
    "name": "camilla  hasund",
    "email": "cabjha95@hotmail.com",
    "lat": 62.437503814697,
    "lon": 6.432897567749,
    "radius": 1,
    "estatetype": "hytte",
    "price_min": 1400000,
    "price_max": 2000000,
    "area_min": 40,
    "area_max": 80,
    "consent": "2020-01-16T01:29:16+01:00",
    "oppdragsaddresse": "Ystebøvegen 35",
    "oppdragsnummer": 79190007,
    "agent": "Marianne Stenseth",
    "office": "Ålesund"
  },
  {
    "id": 390874,
    "type": "searchagent",
    "name": "Jan Ivar Maråk",
    "email": "jan-ivar@fiskebat.no",
    "lat": 62.3337059021,
    "lon": 6.5942039489746,
    "radius": 1,
    "estatetype": "fritidseiendom",
    "price_min": 2300000,
    "price_max": 3100000,
    "area_min": 50,
    "area_max": 80,
    "consent": "2020-01-08T13:55:54+01:00",
    "oppdragsaddresse": "Nysætervatnet Hyttegrend - seksjon 1",
    "oppdragsnummer": 21180003,
    "agent": "Espen Garli",
    "office": "Sykkylven / Stranda"
  },
  {
    "id": 389600,
    "type": "searchagent",
    "name": "Kristoffer Skjortnes",
    "email": "Vedsann@gmail.com",
    "lat": 62.340599060059,
    "lon": 6.5770506858826,
    "radius": 1,
    "estatetype": "enebolig",
    "price_min": 700000,
    "price_max": 1100000,
    "area_min": 90,
    "area_max": 140,
    "consent": "2019-12-21T14:47:09+01:00",
    "oppdragsaddresse": "Sørestrandvegen 130",
    "oppdragsnummer": 21180025,
    "agent": "Espen Garli",
    "office": "Sykkylven / Stranda"
  },
  {
    "id": 389041,
    "type": "searchagent",
    "name": "Lena Harneshaug",
    "email": "Lharnes@online.no",
    "lat": 62.473163604736,
    "lon": 6.2229461669922,
    "radius": 1,
    "estatetype": "leilighet",
    "price_min": 2100000,
    "price_max": 3000000,
    "area_min": 60,
    "area_max": 90,
    "consent": "2019-12-15T23:19:53+01:00",
    "oppdragsaddresse": "Fagerlivegen 8A",
    "oppdragsnummer": 79190096,
    "agent": "Arild Berentzen",
    "office": "Ålesund"
  },
  {
    "id": 388790,
    "type": "searchagent",
    "name": "Steffen Dybdal",
    "email": "steffendybdal@hotmail.com",
    "lat": 62.471618652344,
    "lon": 6.1725978851318,
    "radius": 1,
    "estatetype": "næring",
    "price_min": 3400000,
    "price_max": 4500000,
    "area_min": 170,
    "area_max": 240,
    "consent": "2019-12-12T12:57:13+01:00",
    "oppdragsaddresse": "Borgundvegen 29",
    "oppdragsnummer": 79190092,
    "agent": "Arild Berentzen",
    "office": "Ålesund"
  },
  {
    "id": 382237,
    "type": "searchagent",
    "name": "Camilla Eimhjellen",
    "email": "Camillaeimhjellen@hotmail.no",
    "lat": 62.472267150879,
    "lon": 6.1598100662231,
    "radius": 1,
    "estatetype": "leilighet",
    "price_min": 1900000,
    "price_max": 2600000,
    "area_min": 40,
    "area_max": 70,
    "consent": "2019-10-28T17:09:17+01:00",
    "oppdragsaddresse": "Storgata 6",
    "oppdragsnummer": 79190087,
    "agent": "Marianne Stenseth",
    "office": "Ålesund"
  },
  {
    "id": 388087,
    "type": "searchagent",
    "name": "Camilla Eimhjellen",
    "email": "Camillaeimhjellen@hotmail.no",
    "lat": 62.472118377686,
    "lon": 6.1575107574463,
    "radius": 1,
    "estatetype": "leilighet",
    "price_min": 1400000,
    "price_max": 2100000,
    "area_min": 30,
    "area_max": 60,
    "consent": "2019-12-05T17:36:03+01:00",
    "oppdragsaddresse": "Grimmergata 6",
    "oppdragsnummer": 79190095,
    "agent": "Marianne Stenseth",
    "office": "Ålesund"
  },
  {
    "id": 388078,
    "type": "searchagent",
    "name": "Georg Hustadnes",
    "email": "georg_bjhu@outlook.com",
    "lat": 62.472118377686,
    "lon": 6.1575107574463,
    "radius": 1,
    "estatetype": "leilighet",
    "price_min": 1400000,
    "price_max": 2100000,
    "area_min": 30,
    "area_max": 60,
    "consent": "2019-12-05T17:09:47+01:00",
    "oppdragsaddresse": "Grimmergata 6",
    "oppdragsnummer": 79190095,
    "agent": "Marianne Stenseth",
    "office": "Ålesund"
  },
  {
    "id": 387758,
    "type": "searchagent",
    "name": "Daniel  Di-Giusto",
    "email": "Di-Giusto@seznam.cz",
    "lat": 62.513706207275,
    "lon": 6.130214214325,
    "radius": 1,
    "estatetype": "enebolig",
    "price_min": 3000000,
    "price_max": 4100000,
    "area_min": 110,
    "area_max": 160,
    "consent": "2019-12-02T22:12:50+01:00",
    "oppdragsaddresse": "Nordstrandmyrane 33",
    "oppdragsnummer": 79190082,
    "agent": "Marianne Stenseth",
    "office": "Ålesund"
  },
  {
    "id": 387667,
    "type": "searchagent",
    "name": "Therese Horn",
    "email": "therese.horn@nordea.no",
    "lat": 62.473163604736,
    "lon": 6.2229461669922,
    "radius": 1,
    "estatetype": "leilighet",
    "price_min": 2100000,
    "price_max": 3000000,
    "area_min": 60,
    "area_max": 90,
    "consent": "2019-12-02T12:02:00+01:00",
    "oppdragsaddresse": "Fagerlivegen 8A",
    "oppdragsnummer": 79190096,
    "agent": "Arild Berentzen",
    "office": "Ålesund"
  },
  {
    "id": 387546,
    "type": "searchagent",
    "name": "Frederik Tramborg Jensen",
    "email": "frederik.tramborg@gmail.com",
    "lat": 62.472118377686,
    "lon": 6.1575107574463,
    "radius": 1,
    "estatetype": "leilighet",
    "price_min": 1400000,
    "price_max": 2100000,
    "area_min": 30,
    "area_max": 60,
    "consent": "2019-11-29T15:33:22+01:00",
    "oppdragsaddresse": "Grimmergata 6",
    "oppdragsnummer": 79190095,
    "agent": "Marianne Stenseth",
    "office": "Ålesund"
  },
  {
    "id": 386232,
    "type": "searchagent",
    "name": "Francis Hatlø",
    "email": "crosspasses@gmail.com",
    "lat": 62.468605041504,
    "lon": 6.3690981864929,
    "radius": 1,
    "estatetype": "enebolig",
    "price_min": 2700000,
    "price_max": 3700000,
    "area_min": 90,
    "area_max": 140,
    "consent": "2019-11-20T14:27:43+01:00",
    "oppdragsaddresse": "Øvre Holen 22",
    "oppdragsnummer": 79190077,
    "agent": "Marianne Stenseth",
    "office": "Ålesund"
  },
  {
    "id": 386602,
    "type": "searchagent",
    "name": "francis hatlø",
    "email": "crosspasses@gmail.com",
    "lat": 62.468605041504,
    "lon": 6.3690981864929,
    "radius": 1,
    "estatetype": "enebolig",
    "price_min": 2700000,
    "price_max": 3700000,
    "area_min": 90,
    "area_max": 140,
    "consent": "2019-11-23T19:19:36+01:00",
    "oppdragsaddresse": "Øvre Holen 22",
    "oppdragsnummer": 79190077,
    "agent": "Marianne Stenseth",
    "office": "Ålesund"
  },
  {
    "id": 378259,
    "type": "searchagent",
    "name": "Anne Birgitte Vågsholm",
    "email": "anne.vaagsholm@gmail.com",
    "lat": 62.469917297363,
    "lon": 6.1435804367065,
    "radius": 1,
    "estatetype": "leilighet",
    "price_min": 5000000,
    "price_max": 6600000,
    "area_min": 110,
    "area_max": 160,
    "consent": "2019-10-04T17:42:13+02:00",
    "oppdragsaddresse": "Nedre Strandgate 37A",
    "oppdragsnummer": 79190080,
    "agent": "Arild Berentzen",
    "office": "Ålesund"
  },
  {
    "id": 385612,
    "type": "searchagent",
    "name": "Anne Birgitte Vågsholm",
    "email": "anne.vaagsholm@gmail.com",
    "lat": 62.468704223633,
    "lon": 6.1895527839661,
    "radius": 1,
    "estatetype": "leilighet",
    "price_min": 3900000,
    "price_max": 5200000,
    "area_min": 70,
    "area_max": 100,
    "consent": "2019-11-17T15:36:36+01:00",
    "oppdragsaddresse": "Sjømannsvegen 17C",
    "oppdragsnummer": 79190091,
    "agent": "Arild Berentzen",
    "office": "Ålesund"
  },
  {
    "id": 384658,
    "type": "searchagent",
    "name": "Fredrik Gilsvik",
    "email": "fgilsvik@gmail.com",
    "lat": 62.49146270752,
    "lon": 6.1888856887817,
    "radius": 1,
    "estatetype": "enebolig",
    "price_min": 4400000,
    "price_max": 5800000,
    "area_min": 170,
    "area_max": 240,
    "consent": "2019-11-11T13:55:35+01:00",
    "oppdragsaddresse": "Ellingsøyvegen 39",
    "oppdragsnummer": 79190073,
    "agent": "Arild Berentzen",
    "office": "Ålesund"
  },
  {
    "id": 384577,
    "type": "searchagent",
    "name": "Ove Godø",
    "email": "Ove.godo@atlantic.no",
    "lat": 62.468704223633,
    "lon": 6.1895527839661,
    "radius": 1,
    "estatetype": "leilighet",
    "price_min": 3900000,
    "price_max": 5200000,
    "area_min": 70,
    "area_max": 100,
    "consent": "2019-11-11T09:44:06+01:00",
    "oppdragsaddresse": "Sjømannsvegen 17C",
    "oppdragsnummer": 79190091,
    "agent": "Arild Berentzen",
    "office": "Ålesund"
  },
  {
    "id": 383908,
    "type": "searchagent",
    "name": "Bjørn Arne Skjelten",
    "email": "bjorn@skjelten.no",
    "lat": 62.468704223633,
    "lon": 6.1895527839661,
    "radius": 1,
    "estatetype": "leilighet",
    "price_min": 3900000,
    "price_max": 5200000,
    "area_min": 70,
    "area_max": 100,
    "consent": "2019-11-05T17:22:40+01:00",
    "oppdragsaddresse": "Sjømannsvegen 17C",
    "oppdragsnummer": 79190091,
    "agent": "Arild Berentzen",
    "office": "Ålesund"
  },
  {
    "id": 383496,
    "type": "searchagent",
    "name": "Arne Julien",
    "email": "arnedj65@gmail.com",
    "lat": 62.37829208374,
    "lon": 6.592700958252,
    "radius": 1,
    "estatetype": "leilighet",
    "price_min": 1400000,
    "price_max": 2000000,
    "area_min": 50,
    "area_max": 90,
    "consent": "2019-11-03T18:02:05+01:00",
    "oppdragsaddresse": "Furevegen 12D",
    "oppdragsnummer": 21190018,
    "agent": "Lars Hellevik",
    "office": "Sykkylven / Stranda"
  },
  {
    "id": 276191,
    "type": "searchagent",
    "name": "Christer Løkset",
    "email": "c.lokset@gmail.com",
    "lat": 62.379020690918,
    "lon": 6.5789566040039,
    "radius": 1,
    "estatetype": "enebolig",
    "price_min": 2100000,
    "price_max": 2900000,
    "area_min": 170,
    "area_max": 240,
    "consent": "2018-06-18T22:02:16+02:00",
    "oppdragsaddresse": "Geilevegen 18",
    "oppdragsnummer": 21180034,
    "agent": "Espen Garli",
    "office": "Sykkylven / Stranda"
  },
  {
    "id": 90002,
    "type": "searchagent",
    "name": "Christer Løkset",
    "email": "c.lokset@gmail.com",
    "lat": 62.393005371094,
    "lon": 6.5418386459351,
    "radius": 1,
    "estatetype": "enebolig",
    "price_min": 1200000,
    "price_max": 1700000,
    "area_min": 90,
    "area_max": 140,
    "consent": "2018-11-21T13:12:51+01:00",
    "oppdragsaddresse": "Davnesvegen 27",
    "oppdragsnummer": 21180058,
    "agent": "Espen Garli",
    "office": "Sykkylven / Stranda"
  },
  {
    "id": 314718,
    "type": "searchagent",
    "name": "Christer Løkset",
    "email": "c.lokset@gmail.com",
    "lat": 62.340217590332,
    "lon": 6.5774688720703,
    "radius": 1,
    "estatetype": "enebolig",
    "price_min": 1200000,
    "price_max": 1700000,
    "area_min": 90,
    "area_max": 140,
    "consent": "2018-10-16T22:53:30+02:00",
    "oppdragsaddresse": "Sørestrandvegen 126",
    "oppdragsnummer": 21180021,
    "agent": "Lars Hellevik",
    "office": "Sykkylven / Stranda"
  },
  {
    "id": 379872,
    "type": "searchagent",
    "name": "Torunn Grebstad",
    "email": "torunn.grebstad@gmail.com",
    "lat": 62.39835357666,
    "lon": 6.58540391922,
    "radius": 1,
    "estatetype": "enebolig",
    "price_min": 2400000,
    "price_max": 3200000,
    "area_min": 150,
    "area_max": 210,
    "consent": "2019-10-13T18:37:39+02:00",
    "oppdragsaddresse": "Kagholvegen 4",
    "oppdragsnummer": 21190025,
    "agent": "Espen Garli",
    "office": "Sykkylven / Stranda"
  },
  {
    "id": 381737,
    "type": "searchagent",
    "name": "Arnt-Helge Bjerknes",
    "email": "arnt@mosmarka.no",
    "lat": 62.472267150879,
    "lon": 6.1598100662231,
    "radius": 1,
    "estatetype": "leilighet",
    "price_min": 1900000,
    "price_max": 2600000,
    "area_min": 40,
    "area_max": 70,
    "consent": "2019-10-23T11:39:49+02:00",
    "oppdragsaddresse": "Storgata 6",
    "oppdragsnummer": 79190087,
    "agent": "Marianne Stenseth",
    "office": "Ålesund"
  },
  {
    "id": 379811,
    "type": "searchagent",
    "name": "Hanne Sandven",
    "email": "Hanne.lene@hotmail.com",
    "lat": 62.474792480469,
    "lon": 6.1588625907898,
    "radius": 1,
    "estatetype": "leilighet",
    "price_min": 1800000,
    "price_max": 2500000,
    "area_min": 50,
    "area_max": 80,
    "consent": "2019-10-13T13:44:48+02:00",
    "oppdragsaddresse": "Skaregata 10B",
    "oppdragsnummer": 79190070,
    "agent": "Marianne Stenseth",
    "office": "Ålesund"
  },
  {
    "id": 379815,
    "type": "searchagent",
    "name": "Hanne Lene Sandven",
    "email": "Hanne.lene@hotmail.com",
    "lat": 62.474792480469,
    "lon": 6.1588625907898,
    "radius": 1,
    "estatetype": "leilighet",
    "price_min": 1800000,
    "price_max": 2500000,
    "area_min": 50,
    "area_max": 80,
    "consent": "2019-10-13T13:45:44+02:00",
    "oppdragsaddresse": "Skaregata 10B",
    "oppdragsnummer": 79190070,
    "agent": "Marianne Stenseth",
    "office": "Ålesund"
  },
  {
    "id": 381205,
    "type": "searchagent",
    "name": "Sofie Holten Bøen",
    "email": "sofie_boen@outlook.com",
    "lat": 62.470886230469,
    "lon": 6.1970462799072,
    "radius": 1,
    "estatetype": "leilighet",
    "price_min": 2500000,
    "price_max": 3500000,
    "area_min": 60,
    "area_max": 100,
    "consent": "2019-10-20T21:09:15+02:00",
    "oppdragsaddresse": "Nørvegata 5B",
    "oppdragsnummer": 79190071,
    "agent": "Marianne Stenseth",
    "office": "Ålesund"
  },
  {
    "id": 378252,
    "type": "searchagent",
    "name": "Julie Rogne",
    "email": "julierogne@hotmail.com",
    "lat": 62.473205566406,
    "lon": 6.1668920516968,
    "radius": 1,
    "estatetype": "leilighet",
    "price_min": 2100000,
    "price_max": 2900000,
    "area_min": 60,
    "area_max": 100,
    "consent": "2019-10-04T17:04:17+02:00",
    "oppdragsaddresse": "Grensegata 14",
    "oppdragsnummer": 79190076,
    "agent": "Marianne Stenseth",
    "office": "Ålesund"
  },
  {
    "id": 378769,
    "type": "searchagent",
    "name": "Mai Britt H. Mansfield",
    "email": "Mai.britt.mansfield@orkla.no",
    "lat": 62.470218122768,
    "lon": 6.1747504634438,
    "radius": 1,
    "estatetype": "leilighet",
    "price_min": 5000000,
    "price_max": 300000001,
    "area_min": 100,
    "area_max": 10001,
    "consent": "2019-10-08T11:38:00+02:00"
  },
  {
    "id": 376769,
    "type": "searchagent",
    "name": "Angela Thorsen",
    "email": "Thorsenangela05@gmail.com",
    "lat": 62.471565246582,
    "lon": 6.1412143707275,
    "radius": 1,
    "estatetype": "leilighet",
    "price_min": 1400000,
    "price_max": 2000000,
    "area_min": 40,
    "area_max": 70,
    "consent": "2019-09-26T16:41:27+02:00",
    "oppdragsaddresse": "Giskegata 33",
    "oppdragsnummer": 79190069,
    "agent": "Marianne Stenseth",
    "office": "Ålesund"
  },
  {
    "id": 374363,
    "type": "searchagent",
    "name": "Tove Sylte",
    "email": "tovesylte@hotmail.com",
    "lat": 62.449279785156,
    "lon": 6.3518915176392,
    "radius": 1,
    "estatetype": "leilighet",
    "price_min": 2600000,
    "price_max": 3500000,
    "area_min": 50,
    "area_max": 90,
    "consent": "2019-09-15T14:14:41+02:00",
    "oppdragsaddresse": "Remviksletta 39",
    "oppdragsnummer": 79190078,
    "agent": "Marianne Stenseth",
    "office": "Ålesund"
  },
  {
    "id": 375400,
    "type": "searchagent",
    "name": "Tone Reitan",
    "email": "Tone.reitan@mail.com",
    "lat": 62.501262664795,
    "lon": 6.1282901763916,
    "radius": 1,
    "estatetype": "enebolig",
    "price_min": 3900000,
    "price_max": 5200000,
    "area_min": 160,
    "area_max": 230,
    "consent": "2019-09-19T21:22:53+02:00",
    "oppdragsaddresse": "Øvstevegen 46",
    "oppdragsnummer": 79190061,
    "agent": "Marianne Stenseth",
    "office": "Ålesund"
  },
  {
    "id": 375215,
    "type": "searchagent",
    "name": "Anna Hanssen",
    "email": "amha83@gmail.com",
    "lat": 62.404178619385,
    "lon": 6.5805444717407,
    "radius": 1,
    "estatetype": "enebolig",
    "price_min": 1800000,
    "price_max": 2500000,
    "area_min": 150,
    "area_max": 210,
    "consent": "2019-09-19T09:35:44+02:00",
    "oppdragsaddresse": "Ura 35",
    "oppdragsnummer": 21190038,
    "agent": "Espen Garli",
    "office": "Sykkylven / Stranda"
  },
  {
    "id": 374747,
    "type": "searchagent",
    "name": "Jakob Vadset",
    "email": "j_vadset@me.com",
    "lat": 62.475028991699,
    "lon": 6.2564101219177,
    "radius": 1,
    "estatetype": "enebolig",
    "price_min": 2500000,
    "price_max": 3400000,
    "area_min": 140,
    "area_max": 190,
    "consent": "2019-09-17T11:49:28+02:00",
    "oppdragsaddresse": "Samundplassen 9",
    "oppdragsnummer": 79190066,
    "agent": "Marianne Stenseth",
    "office": "Ålesund"
  },
  {
    "id": 327746,
    "type": "searchagent",
    "name": "Richard Seth",
    "email": "richardseth@rocketmail.com",
    "lat": 62.476726531982,
    "lon": 6.248664855957,
    "radius": 1,
    "estatetype": "leilighet",
    "price_min": 1700000,
    "price_max": 2300000,
    "area_min": 90,
    "area_max": 140,
    "consent": "2019-03-20T23:59:17+01:00",
    "oppdragsaddresse": "Torvteigen 26",
    "oppdragsnummer": 79190016,
    "agent": "Marianne Stenseth",
    "office": "Ålesund"
  },
  {
    "id": 374186,
    "type": "searchagent",
    "name": "Richard Seth",
    "email": "richardseth@rocketmail.com",
    "lat": 62.475028991699,
    "lon": 6.2564101219177,
    "radius": 1,
    "estatetype": "enebolig",
    "price_min": 2500000,
    "price_max": 3400000,
    "area_min": 140,
    "area_max": 190,
    "consent": "2019-09-13T21:25:34+02:00",
    "oppdragsaddresse": "Samundplassen 9",
    "oppdragsnummer": 79190066,
    "agent": "Marianne Stenseth",
    "office": "Ålesund"
  },
  {
    "id": 373921,
    "type": "searchagent",
    "name": "Egil Tennfjord Mikalsen",
    "email": "egilmikalsen@gmail.com",
    "lat": 62.475028991699,
    "lon": 6.2564101219177,
    "radius": 1,
    "estatetype": "diverse",
    "price_min": 3000000,
    "price_max": 4000000,
    "area_min": 140,
    "area_max": 190,
    "consent": "2019-09-12T14:18:54+02:00",
    "oppdragsaddresse": "Samundplassen 9",
    "oppdragsnummer": 79190066,
    "agent": "Marianne Stenseth",
    "office": "Ålesund"
  },
  {
    "id": 373701,
    "type": "searchagent",
    "name": "Pauline Wiggen",
    "email": "Paulineur@hotmail.com",
    "lat": 62.501262664795,
    "lon": 6.1282901763916,
    "radius": 1,
    "estatetype": "enebolig",
    "price_min": 3900000,
    "price_max": 5200000,
    "area_min": 160,
    "area_max": 230,
    "consent": "2019-09-11T18:05:46+02:00",
    "oppdragsaddresse": "Øvstevegen 46",
    "oppdragsnummer": 79190061,
    "agent": "Marianne Stenseth",
    "office": "Ålesund"
  },
  {
    "id": 373176,
    "type": "searchagent",
    "name": "thomas vangen",
    "email": "post@tvangen.no",
    "lat": 62.389919281006,
    "lon": 6.5941886901855,
    "radius": 1,
    "estatetype": "leilighet",
    "price_min": 2300000,
    "price_max": 3200000,
    "area_min": 110,
    "area_max": 160,
    "consent": "2019-09-10T04:57:26+02:00",
    "oppdragsaddresse": "Speidarvegen 7",
    "oppdragsnummer": 21190021,
    "agent": "Espen Garli",
    "office": "Sykkylven / Stranda"
  },
  {
    "id": 371568,
    "type": "searchagent",
    "name": "Linda Andreassen",
    "email": "lindaaa9@hotmail.com",
    "lat": 62.475028991699,
    "lon": 6.2564101219177,
    "radius": 1,
    "estatetype": "diverse",
    "price_min": 2900000,
    "price_max": 3900000,
    "area_min": 140,
    "area_max": 190,
    "consent": "2019-09-05T17:00:59+02:00",
    "oppdragsaddresse": "Samundplassen 9",
    "oppdragsnummer": 79190066,
    "agent": "Marianne Stenseth",
    "office": "Ålesund"
  },
  {
    "id": 370260,
    "type": "searchagent",
    "name": "frantz heggøy",
    "email": "heggoey90@hotmail.com",
    "lat": 62.477062225342,
    "lon": 6.2374153137207,
    "radius": 1,
    "estatetype": "enebolig",
    "price_min": 3900000,
    "price_max": 5200000,
    "area_min": 170,
    "area_max": 230,
    "consent": "2019-09-01T16:06:08+02:00",
    "oppdragsaddresse": "Ørnetua 7",
    "oppdragsnummer": 79190062,
    "agent": "Marianne Stenseth",
    "office": "Ålesund"
  },
  {
    "id": 368935,
    "type": "searchagent",
    "name": "Henrik Myren Riksfjord",
    "email": "henrik.myren94@gmail.com",
    "lat": 62.470809936523,
    "lon": 6.2042155265808,
    "radius": 1,
    "estatetype": "leilighet",
    "price_min": 900000,
    "price_max": 1400000,
    "area_min": 60,
    "area_max": 100,
    "consent": "2019-08-27T11:38:10+02:00",
    "oppdragsaddresse": "Nørvegata 22A",
    "oppdragsnummer": 79190028,
    "agent": "Marianne Stenseth",
    "office": "Ålesund"
  },
  {
    "id": 368893,
    "type": "searchagent",
    "name": "CECILIE KVERNEVIK",
    "email": "cecilie.kvernevik@parker.com",
    "lat": 62.477062225342,
    "lon": 6.2374153137207,
    "radius": 1,
    "estatetype": "enebolig",
    "price_min": 3900000,
    "price_max": 5200000,
    "area_min": 170,
    "area_max": 230,
    "consent": "2019-08-27T09:31:49+02:00",
    "oppdragsaddresse": "Ørnetua 7",
    "oppdragsnummer": 79190062,
    "agent": "Marianne Stenseth",
    "office": "Ålesund"
  },
  {
    "id": 368720,
    "type": "searchagent",
    "name": "Gurli Johansen",
    "email": "Gurlimarlenejohansen@gmail.com",
    "lat": 62.462768554688,
    "lon": 6.2832856178284,
    "radius": 1,
    "estatetype": "enebolig",
    "price_min": 3200000,
    "price_max": 4300000,
    "area_min": 120,
    "area_max": 170,
    "consent": "2019-08-26T17:48:27+02:00",
    "oppdragsaddresse": "Borgundvegen 629",
    "oppdragsnummer": 79190036,
    "agent": "Marianne Stenseth",
    "office": "Ålesund"
  },
  {
    "id": 368015,
    "type": "searchagent",
    "name": "Perdy Grimstad",
    "email": "perdygrim@hotmail.com",
    "lat": 62.460022267041,
    "lon": 6.3503926927259,
    "radius": 2,
    "estatetype": "leilighet",
    "price_min": 0,
    "price_max": 3500000,
    "area_min": 80,
    "area_max": 140,
    "consent": "2019-08-22T15:42:43+02:00"
  },
  {
    "id": 339791,
    "type": "searchagent",
    "name": "Marius Hopen",
    "email": "Mariushopen@hotmail.com",
    "lat": 62.379451751709,
    "lon": 6.5949425697327,
    "radius": 1,
    "estatetype": "enebolig",
    "price_min": 3100000,
    "price_max": 4200000,
    "area_min": 220,
    "area_max": 300,
    "consent": "2019-05-05T08:44:33+02:00",
    "oppdragsaddresse": "Ormevegen 6",
    "oppdragsnummer": 21190007,
    "agent": "Espen Garli",
    "office": "Sykkylven / Stranda"
  },
  {
    "id": 119208,
    "type": "searchagent",
    "name": "Marius Hopen",
    "email": "mariushopen@hotmail.com",
    "lat": 62.404392242432,
    "lon": 6.5884675979614,
    "radius": 1,
    "estatetype": "enebolig",
    "price_min": 2900000,
    "price_max": 2900000,
    "area_min": 140,
    "area_max": 210,
    "consent": "2019-02-25T13:26:36+01:00",
    "oppdragsaddresse": "Symrevegen 3",
    "oppdragsnummer": 21180040,
    "agent": "Espen Garli",
    "office": "Sykkylven / Stranda"
  },
  {
    "id": 364429,
    "type": "searchagent",
    "name": "Marius Hopen",
    "email": "mariushopen@hotmail.com",
    "lat": 62.388729095459,
    "lon": 6.583393573761,
    "radius": 1,
    "estatetype": "enebolig",
    "price_min": 2500000,
    "price_max": 3400000,
    "area_min": 210,
    "area_max": 290,
    "consent": "2019-08-09T21:18:07+02:00",
    "oppdragsaddresse": "Nakkegata 5",
    "oppdragsnummer": 21190024,
    "agent": "Espen Garli",
    "office": "Sykkylven / Stranda"
  },
  {
    "id": 364401,
    "type": "searchagent",
    "name": "Marius Hopen",
    "email": "mariushopen@hotmail.com",
    "lat": 62.39835357666,
    "lon": 6.58540391922,
    "radius": 1,
    "estatetype": "enebolig",
    "price_min": 2500000,
    "price_max": 3400000,
    "area_min": 150,
    "area_max": 210,
    "consent": "2019-08-09T18:07:52+02:00",
    "oppdragsaddresse": "Kagholvegen 4",
    "oppdragsnummer": 21190025,
    "agent": "Espen Garli",
    "office": "Sykkylven / Stranda"
  },
  {
    "id": 340193,
    "type": "searchagent",
    "name": "Marius Hopen",
    "email": "mariushopen@hotmail.com",
    "lat": 62.376644134521,
    "lon": 6.5967645645142,
    "radius": 1,
    "estatetype": "enebolig",
    "price_min": 3400000,
    "price_max": 4500000,
    "area_min": 150,
    "area_max": 210,
    "consent": "2019-05-06T13:19:34+02:00",
    "oppdragsaddresse": "Reset 12",
    "oppdragsnummer": 21190005,
    "agent": "Espen Garli",
    "office": "Sykkylven / Stranda"
  },
  {
    "id": 335780,
    "type": "searchagent",
    "name": "Marius Hopen",
    "email": "mariushopen@hotmail.com",
    "lat": 62.403804779053,
    "lon": 6.6003923416138,
    "radius": 1,
    "estatetype": "enebolig",
    "price_min": 2500000,
    "price_max": 3400000,
    "area_min": 160,
    "area_max": 230,
    "consent": "2019-04-19T08:08:43+02:00",
    "oppdragsaddresse": "Klipevegen 30",
    "oppdragsnummer": 21180043,
    "agent": "Espen Garli",
    "office": "Sykkylven / Stranda"
  },
  {
    "id": 260048,
    "type": "searchagent",
    "name": "Charlotte  Falch Jakobsen",
    "email": "jakobsen.charlotte@hotmail.com",
    "lat": 62.390632629395,
    "lon": 6.5413436889648,
    "radius": 1,
    "estatetype": "enebolig",
    "price_min": 2200000,
    "price_max": 3000000,
    "area_min": 250,
    "area_max": 340,
    "consent": "2018-04-22T13:55:56+02:00",
    "oppdragsaddresse": "Parkvegen 4",
    "oppdragsnummer": 21170027,
    "agent": "Espen Garli",
    "office": "Sykkylven / Stranda"
  },
  {
    "id": 366471,
    "type": "searchagent",
    "name": "Tesfutekle45@gmail.com",
    "email": "Tesfutekle45@gmail.com",
    "lat": 62.39835357666,
    "lon": 6.58540391922,
    "radius": 1,
    "estatetype": "enebolig",
    "price_min": 2500000,
    "price_max": 3400000,
    "area_min": 150,
    "area_max": 210,
    "consent": "2019-08-17T22:45:35+02:00",
    "oppdragsaddresse": "Kagholvegen 4",
    "oppdragsnummer": 21190025,
    "agent": "Espen Garli",
    "office": "Sykkylven / Stranda"
  },
  {
    "id": 366408,
    "type": "searchagent",
    "name": "Vermund Aarflot",
    "email": "Aarflotv@yahoo.co.uk",
    "lat": 62.314819335938,
    "lon": 6.940441608429,
    "radius": 1,
    "estatetype": "enebolig",
    "price_min": 1100000,
    "price_max": 1600000,
    "area_min": 160,
    "area_max": 220,
    "consent": "2019-08-17T14:47:35+02:00",
    "oppdragsaddresse": "Ødegårdsvegen 79",
    "oppdragsnummer": 21190036,
    "agent": "Lars Hellevik",
    "office": "Sykkylven / Stranda"
  },
  {
    "id": 366362,
    "type": "searchagent",
    "name": "Damian Rymarz",
    "email": "baal666@wp.pl",
    "lat": 62.314819335938,
    "lon": 6.940441608429,
    "radius": 1,
    "estatetype": "enebolig",
    "price_min": 1100000,
    "price_max": 1600000,
    "area_min": 160,
    "area_max": 220,
    "consent": "2019-08-17T13:09:12+02:00",
    "oppdragsaddresse": "Ødegårdsvegen 79",
    "oppdragsnummer": 21190036,
    "agent": "Lars Hellevik",
    "office": "Sykkylven / Stranda"
  },
  {
    "id": 365721,
    "type": "searchagent",
    "name": "Frode Svindseth",
    "email": "Frode@Svindseth.com",
    "lat": 62.304962158203,
    "lon": 6.915943145752,
    "radius": 1,
    "estatetype": "enebolig",
    "price_min": 900000,
    "price_max": 1400000,
    "area_min": 180,
    "area_max": 250,
    "consent": "2019-08-15T03:27:25+02:00",
    "oppdragsaddresse": "Dalevegen 46",
    "oppdragsnummer": 21190031,
    "agent": "Lars Hellevik",
    "office": "Sykkylven / Stranda"
  },
  {
    "id": 365718,
    "type": "searchagent",
    "name": "Frode Gjærde Svindseth",
    "email": "Frode@Svindseth.com",
    "lat": 62.304962158203,
    "lon": 6.915943145752,
    "radius": 1,
    "estatetype": "enebolig",
    "price_min": 900000,
    "price_max": 1400000,
    "area_min": 180,
    "area_max": 250,
    "consent": "2019-08-15T03:25:43+02:00",
    "oppdragsaddresse": "Dalevegen 46",
    "oppdragsnummer": 21190031,
    "agent": "Lars Hellevik",
    "office": "Sykkylven / Stranda"
  },
  {
    "id": 365715,
    "type": "searchagent",
    "name": "Frode Gjærde Svindseth",
    "email": "Frode@Svindseth.com",
    "lat": 62.304962158203,
    "lon": 6.915943145752,
    "radius": 1,
    "estatetype": "enebolig",
    "price_min": 900000,
    "price_max": 1400000,
    "area_min": 180,
    "area_max": 250,
    "consent": "2019-08-15T03:24:28+02:00",
    "oppdragsaddresse": "Dalevegen 46",
    "oppdragsnummer": 21190031,
    "agent": "Lars Hellevik",
    "office": "Sykkylven / Stranda"
  },
  {
    "id": 361328,
    "type": "searchagent",
    "name": "Frode Berg",
    "email": "frode.berg@outlook.com",
    "lat": 62.470809936523,
    "lon": 6.2042155265808,
    "radius": 1,
    "estatetype": "leilighet",
    "price_min": 900000,
    "price_max": 1400000,
    "area_min": 60,
    "area_max": 100,
    "consent": "2019-07-25T13:28:08+02:00",
    "oppdragsaddresse": "Nørvegata 22A",
    "oppdragsnummer": 79190028,
    "agent": "Marianne Stenseth",
    "office": "Ålesund"
  },
  {
    "id": 361131,
    "type": "searchagent",
    "name": "Roar Skarsten",
    "email": "post@skarsten.no",
    "lat": 62.470809936523,
    "lon": 6.2042155265808,
    "radius": 1,
    "estatetype": "leilighet",
    "price_min": 900000,
    "price_max": 1400000,
    "area_min": 60,
    "area_max": 100,
    "consent": "2019-07-23T19:26:40+02:00",
    "oppdragsaddresse": "Nørvegata 22A",
    "oppdragsnummer": 79190028,
    "agent": "Marianne Stenseth",
    "office": "Ålesund"
  },
  {
    "id": 252489,
    "type": "searchagent",
    "name": "Susanne Hole",
    "email": "susannelangelohole@gmail.com",
    "lat": 62.291164398193,
    "lon": 6.9636368751526,
    "radius": 1,
    "estatetype": "enebolig",
    "price_min": 1100000,
    "price_max": 1600000,
    "area_min": 150,
    "area_max": 210,
    "consent": "2018-03-19T13:26:59+01:00",
    "oppdragsaddresse": "Kvernhusvegen 6",
    "oppdragsnummer": 21170098,
    "agent": "Lars Hellevik",
    "office": "Sykkylven / Stranda"
  },
  {
    "id": 335939,
    "type": "searchagent",
    "name": "Susanne Hole",
    "email": "susannelangelohole@gmail.com",
    "lat": 62.310794830322,
    "lon": 6.9446492195129,
    "radius": 1,
    "estatetype": "enebolig",
    "price_min": 2000000,
    "price_max": 2700000,
    "area_min": 200,
    "area_max": 280,
    "consent": "2019-04-20T17:06:43+02:00",
    "oppdragsaddresse": "Fagerlivegen 9",
    "oppdragsnummer": 21190012,
    "agent": "Lars Hellevik",
    "office": "Sykkylven / Stranda"
  },
  {
    "id": 351148,
    "type": "searchagent",
    "name": "Susanne hole",
    "email": "susannelangelohole@gmail.com",
    "lat": 62.227546691895,
    "lon": 6.9134893417358,
    "radius": 1,
    "estatetype": "landbruk",
    "price_min": 1400000,
    "price_max": 1900000,
    "area_min": 120,
    "area_max": 170,
    "consent": "2019-06-08T13:08:02+02:00",
    "oppdragsaddresse": "Dalevegen 1010",
    "oppdragsnummer": 21190026,
    "agent": "Lars Hellevik",
    "office": "Sykkylven / Stranda"
  },
  {
    "id": 355581,
    "type": "searchagent",
    "name": "Susanne Hole",
    "email": "susannelangelohole@gmail.com",
    "lat": 62.227546691895,
    "lon": 6.9134893417358,
    "radius": 1,
    "estatetype": "landbruk",
    "price_min": 1400000,
    "price_max": 1900000,
    "area_min": 120,
    "area_max": 170,
    "consent": "2019-06-23T19:15:46+02:00",
    "oppdragsaddresse": "Dalevegen 1010",
    "oppdragsnummer": 21190026,
    "agent": "Lars Hellevik",
    "office": "Sykkylven / Stranda"
  },
  {
    "id": 338542,
    "type": "searchagent",
    "name": "Enok Kobbevik",
    "email": "enokkobbevik@gmail.com",
    "lat": 62.427845001221,
    "lon": 6.4091539382935,
    "radius": 1,
    "estatetype": "enebolig",
    "price_min": 4300000,
    "price_max": 5700000,
    "area_min": 170,
    "area_max": 230,
    "consent": "2019-04-29T18:47:46+02:00",
    "oppdragsaddresse": "Skråvika 2",
    "oppdragsnummer": 79190038,
    "agent": "Marianne Stenseth",
    "office": "Ålesund"
  },
  {
    "id": 356934,
    "type": "searchagent",
    "name": "Silje Bjerknes",
    "email": "siljesteinnesbjerknes@hotmail.com",
    "lat": 62.475173950195,
    "lon": 6.1572251319885,
    "radius": 1,
    "estatetype": "leilighet",
    "price_min": 2000000,
    "price_max": 2800000,
    "area_min": 60,
    "area_max": 90,
    "consent": "2019-06-28T01:23:36+02:00",
    "oppdragsaddresse": "Storgata 31",
    "oppdragsnummer": 79190058,
    "agent": "Marianne Stenseth",
    "office": "Ålesund"
  },
  {
    "id": 356864,
    "type": "searchagent",
    "name": "Bjørn Erik Bjørnvik",
    "email": "Bj0rn12@yahoo.no",
    "lat": 62.433727264404,
    "lon": 6.3538436889648,
    "radius": 1,
    "estatetype": "tomannsbolig",
    "price_min": 2900000,
    "price_max": 3900000,
    "area_min": 100,
    "area_max": 150,
    "consent": "2019-06-27T17:58:06+02:00",
    "oppdragsaddresse": "Vegsundhaugen 7",
    "oppdragsnummer": 79190051,
    "agent": "Marianne Stenseth",
    "office": "Ålesund"
  },
  {
    "id": 355450,
    "type": "searchagent",
    "name": "Linn Cesilie  Ness",
    "email": "nessie_lake@hotmail.com",
    "lat": 62.462299346924,
    "lon": 6.2631850242615,
    "radius": 1,
    "estatetype": "leilighet",
    "price_min": 2200000,
    "price_max": 3000000,
    "area_min": 50,
    "area_max": 80,
    "consent": "2019-06-22T21:37:00+02:00",
    "oppdragsaddresse": "Søstrene Ratviks veg 10D",
    "oppdragsnummer": 79190044,
    "agent": "Marianne Stenseth",
    "office": "Ålesund"
  },
  {
    "id": 355090,
    "type": "searchagent",
    "name": "Birgitte Øye",
    "email": "Birgitteoye@outlook.com",
    "lat": 62.433727264404,
    "lon": 6.3538436889648,
    "radius": 1,
    "estatetype": "tomannsbolig",
    "price_min": 2900000,
    "price_max": 3900000,
    "area_min": 100,
    "area_max": 150,
    "consent": "2019-06-20T17:24:41+02:00",
    "oppdragsaddresse": "Vegsundhaugen 7",
    "oppdragsnummer": 79190051,
    "agent": "Marianne Stenseth",
    "office": "Ålesund"
  },
  {
    "id": 335851,
    "type": "searchagent",
    "name": "Lars Even Slyngstad",
    "email": "leslyngstad@gmail.com",
    "lat": 62.310794830322,
    "lon": 6.9446492195129,
    "radius": 1,
    "estatetype": "enebolig",
    "price_min": 2000000,
    "price_max": 2700000,
    "area_min": 200,
    "area_max": 280,
    "consent": "2019-04-19T21:01:50+02:00",
    "oppdragsaddresse": "Fagerlivegen 9",
    "oppdragsnummer": 21190012,
    "agent": "Lars Hellevik",
    "office": "Sykkylven / Stranda"
  },
  {
    "id": 351111,
    "type": "searchagent",
    "name": "Lars Even Slyngstad",
    "email": "leslyngstad@gmail.com",
    "lat": 62.312191009521,
    "lon": 6.9182186126709,
    "radius": 1,
    "estatetype": "enebolig",
    "price_min": 1500000,
    "price_max": 2100000,
    "area_min": 140,
    "area_max": 200,
    "consent": "2019-06-08T10:09:30+02:00",
    "oppdragsaddresse": "Ødegårdsvegen 205",
    "oppdragsnummer": 21190020,
    "agent": "Lars Hellevik",
    "office": "Sykkylven / Stranda"
  },
  {
    "id": 338571,
    "type": "searchagent",
    "name": "Kirsti Brekke",
    "email": "brekke.kirsti@gmail.com",
    "lat": 62.462768554688,
    "lon": 6.2832856178284,
    "radius": 1,
    "estatetype": "enebolig",
    "price_min": 3200000,
    "price_max": 4300000,
    "area_min": 120,
    "area_max": 170,
    "consent": "2019-04-29T20:12:15+02:00",
    "oppdragsaddresse": "Borgundvegen 629",
    "oppdragsnummer": 79190036,
    "agent": "Marianne Stenseth",
    "office": "Ålesund"
  },
  {
    "id": 313480,
    "type": "searchagent",
    "name": "Kirsti Brekke",
    "email": "brekke.kirsti@gmail.com",
    "lat": 62.461742401123,
    "lon": 6.2888174057007,
    "radius": 1,
    "estatetype": "tomannsbolig",
    "price_min": 3600000,
    "price_max": 4900000,
    "area_min": 100,
    "area_max": 150,
    "consent": "2018-10-02T20:01:52+02:00",
    "oppdragsaddresse": "Holmeskjærvegen 28",
    "oppdragsnummer": 24180007,
    "agent": "Arild Berentzen",
    "office": "Ålesund"
  },
  {
    "id": 353642,
    "type": "searchagent",
    "name": "Kirsti Brekke",
    "email": "brekke.kirsti@gmail.com",
    "lat": 62.473924810547,
    "lon": 6.2491934864928,
    "radius": 0.7,
    "estatetype": "tomannsbolig,enebolig",
    "price_min": 0,
    "price_max": 6000000,
    "area_min": 150,
    "area_max": 10001,
    "consent": "2019-06-17T09:22:31+02:00"
  },
  {
    "id": 351538,
    "type": "searchagent",
    "name": "Khunav Abdallah",
    "email": "khunav87@gmail.com",
    "lat": 62.462768554688,
    "lon": 6.2832856178284,
    "radius": 1,
    "estatetype": "enebolig",
    "price_min": 3200000,
    "price_max": 4300000,
    "area_min": 120,
    "area_max": 170,
    "consent": "2019-06-10T14:41:10+02:00",
    "oppdragsaddresse": "Borgundvegen 629",
    "oppdragsnummer": 79190036,
    "agent": "Marianne Stenseth",
    "office": "Ålesund"
  },
  {
    "id": 348459,
    "type": "searchagent",
    "name": "gt ten",
    "email": "katrin@runet.no",
    "lat": 62.437503814697,
    "lon": 6.432897567749,
    "radius": 1,
    "estatetype": "hytte",
    "price_min": 1600000,
    "price_max": 2200000,
    "area_min": 40,
    "area_max": 80,
    "consent": "2019-05-29T17:49:13+02:00",
    "oppdragsaddresse": "Ystebøvegen 35",
    "oppdragsnummer": 79190007,
    "agent": "Marianne Stenseth",
    "office": "Ålesund"
  },
  {
    "id": 346777,
    "type": "searchagent",
    "name": "Kristine Alvestad Eggesbø",
    "email": "kristinealvestad@hotmail.com",
    "lat": 62.432918548584,
    "lon": 6.4249787330627,
    "radius": 1,
    "estatetype": "enebolig",
    "price_min": 4400000,
    "price_max": 5800000,
    "area_min": 180,
    "area_max": 250,
    "consent": "2019-05-26T00:40:21+02:00",
    "oppdragsaddresse": "Ludvikdalen 10",
    "oppdragsnummer": 79190040,
    "agent": "Marianne Stenseth",
    "office": "Ålesund"
  },
  {
    "id": 345637,
    "type": "searchagent",
    "name": "Malin Aakernes",
    "email": "malin.aakernes@gmail.com",
    "lat": 62.432918548584,
    "lon": 6.4249787330627,
    "radius": 1,
    "estatetype": "enebolig",
    "price_min": 4400000,
    "price_max": 5800000,
    "area_min": 180,
    "area_max": 250,
    "consent": "2019-05-22T11:23:45+02:00",
    "oppdragsaddresse": "Ludvikdalen 10",
    "oppdragsnummer": 79190040,
    "agent": "Marianne Stenseth",
    "office": "Ålesund"
  },
  {
    "id": 345124,
    "type": "searchagent",
    "name": "muniazaman02@gmail.com",
    "email": "muniazaman02@gmail.com",
    "lat": 62.472816467285,
    "lon": 6.2226190567017,
    "radius": 1,
    "estatetype": "leilighet",
    "price_min": 2600000,
    "price_max": 3500000,
    "area_min": 60,
    "area_max": 90,
    "consent": "2019-05-21T12:09:50+02:00",
    "oppdragsaddresse": "Fagerlivegen 6",
    "oppdragsnummer": 79190035,
    "agent": "Arild Berentzen",
    "office": "Ålesund"
  },
  {
    "id": 337714,
    "type": "searchagent",
    "name": "Eilin Hauge",
    "email": "eilin.gule@gmail.com",
    "lat": 62.427845001221,
    "lon": 6.4091539382935,
    "radius": 1,
    "estatetype": "enebolig",
    "price_min": 4300000,
    "price_max": 5700000,
    "area_min": 170,
    "area_max": 230,
    "consent": "2019-04-26T19:56:23+02:00",
    "oppdragsaddresse": "Skråvika 2",
    "oppdragsnummer": 79190038,
    "agent": "Marianne Stenseth",
    "office": "Ålesund"
  },
  {
    "id": 337726,
    "type": "searchagent",
    "name": "Marius Hauge",
    "email": "marius.hauge@gmail.com",
    "lat": 62.427845001221,
    "lon": 6.4091539382935,
    "radius": 1,
    "estatetype": "enebolig",
    "price_min": 4300000,
    "price_max": 5700000,
    "area_min": 170,
    "area_max": 230,
    "consent": "2019-04-26T20:16:28+02:00",
    "oppdragsaddresse": "Skråvika 2",
    "oppdragsnummer": 79190038,
    "agent": "Marianne Stenseth",
    "office": "Ålesund"
  },
  {
    "id": 342476,
    "type": "searchagent",
    "name": "Carlos Salas",
    "email": "casabrin@gmail.com",
    "lat": 62.462768554688,
    "lon": 6.2832856178284,
    "radius": 1,
    "estatetype": "enebolig",
    "price_min": 3200000,
    "price_max": 4300000,
    "area_min": 120,
    "area_max": 170,
    "consent": "2019-05-13T12:55:07+02:00",
    "oppdragsaddresse": "Borgundvegen 629",
    "oppdragsnummer": 79190036,
    "agent": "Marianne Stenseth",
    "office": "Ålesund"
  },
  {
    "id": 340466,
    "type": "searchagent",
    "name": "Jannicke Holmeset",
    "email": "jannickeholmeset@hotmail.com",
    "lat": 62.376644134521,
    "lon": 6.5967645645142,
    "radius": 1,
    "estatetype": "enebolig",
    "price_min": 3400000,
    "price_max": 4500000,
    "area_min": 150,
    "area_max": 210,
    "consent": "2019-05-06T21:54:12+02:00",
    "oppdragsaddresse": "Reset 12",
    "oppdragsnummer": 21190005,
    "agent": "Espen Garli",
    "office": "Sykkylven / Stranda"
  },
  {
    "id": 268813,
    "type": "searchagent",
    "name": "Jannicke Holmeset",
    "email": "jannickeholmeset@hotmail.com",
    "lat": 62.410427093506,
    "lon": 6.5566353797913,
    "radius": 1,
    "estatetype": "enebolig",
    "price_min": 3200000,
    "price_max": 4300000,
    "area_min": 160,
    "area_max": 220,
    "consent": "2018-05-27T15:44:33+02:00",
    "oppdragsaddresse": "Fjordvegen 44",
    "oppdragsnummer": 21180010,
    "agent": "Espen Garli",
    "office": "Sykkylven / Stranda"
  },
  {
    "id": 337776,
    "type": "searchagent",
    "name": "Henriette Johannessen",
    "email": "henjoha86@gmail.com",
    "lat": 62.427845001221,
    "lon": 6.4091539382935,
    "radius": 1,
    "estatetype": "enebolig",
    "price_min": 4300000,
    "price_max": 5700000,
    "area_min": 170,
    "area_max": 230,
    "consent": "2019-04-27T09:44:27+02:00",
    "oppdragsaddresse": "Skråvika 2",
    "oppdragsnummer": 79190038,
    "agent": "Marianne Stenseth",
    "office": "Ålesund"
  },
  {
    "id": 340452,
    "type": "searchagent",
    "name": "Henriette Johannessen",
    "email": "henjoha86@gmail.com",
    "lat": 62.427845001221,
    "lon": 6.4091539382935,
    "radius": 1,
    "estatetype": "enebolig",
    "price_min": 4300000,
    "price_max": 5700000,
    "area_min": 170,
    "area_max": 230,
    "consent": "2019-05-06T21:08:34+02:00",
    "oppdragsaddresse": "Skråvika 2",
    "oppdragsnummer": 79190038,
    "agent": "Marianne Stenseth",
    "office": "Ålesund"
  },
  {
    "id": 335789,
    "type": "searchagent",
    "name": "Tor Einar Steinsvik",
    "email": "tsteinsvik@hotmail.com",
    "lat": 62.403804779053,
    "lon": 6.6003923416138,
    "radius": 1,
    "estatetype": "enebolig",
    "price_min": 2500000,
    "price_max": 3400000,
    "area_min": 160,
    "area_max": 230,
    "consent": "2019-04-19T09:31:50+02:00",
    "oppdragsaddresse": "Klipevegen 30",
    "oppdragsnummer": 21180043,
    "agent": "Espen Garli",
    "office": "Sykkylven / Stranda"
  },
  {
    "id": 260739,
    "type": "searchagent",
    "name": "Tor Einar Steinsvik",
    "email": "tsteinsvik@hotmail.com",
    "lat": 62.401775360107,
    "lon": 6.603865146637,
    "radius": 1,
    "estatetype": "enebolig",
    "price_min": 2300000,
    "price_max": 3100000,
    "area_min": 130,
    "area_max": 190,
    "consent": "2018-04-24T14:56:55+02:00",
    "oppdragsaddresse": "Granvegen 17",
    "oppdragsnummer": 21180022,
    "agent": "Espen Garli",
    "office": "Sykkylven / Stranda"
  },
  {
    "id": 288934,
    "type": "searchagent",
    "name": "Tor Einar Steinsvik",
    "email": "tsteinsvik@hotmail.com",
    "lat": 62.390525817871,
    "lon": 6.5896000862122,
    "radius": 1,
    "estatetype": "enebolig",
    "price_min": 3200000,
    "price_max": 4300000,
    "area_min": 170,
    "area_max": 230,
    "consent": "2018-08-11T10:44:20+02:00",
    "oppdragsaddresse": "Storgata 41",
    "oppdragsnummer": 21170060,
    "agent": "Espen Garli",
    "office": "Sykkylven / Stranda"
  },
  {
    "id": 338205,
    "type": "searchagent",
    "name": "Trond Sotnakk",
    "email": "trond.sotnakk@gmail.com",
    "lat": 62.427845001221,
    "lon": 6.4091539382935,
    "radius": 1,
    "estatetype": "enebolig",
    "price_min": 4300000,
    "price_max": 5700000,
    "area_min": 170,
    "area_max": 230,
    "consent": "2019-04-29T08:51:37+02:00",
    "oppdragsaddresse": "Skråvika 2",
    "oppdragsnummer": 79190038,
    "agent": "Marianne Stenseth",
    "office": "Ålesund"
  },
  {
    "id": 337838,
    "type": "searchagent",
    "name": "Hans Gunnar Høyland",
    "email": "Hanshoyland@outlook.com",
    "lat": 62.427845001221,
    "lon": 6.4091539382935,
    "radius": 1,
    "estatetype": "enebolig",
    "price_min": 4300000,
    "price_max": 5700000,
    "area_min": 170,
    "area_max": 230,
    "consent": "2019-04-27T14:42:03+02:00",
    "oppdragsaddresse": "Skråvika 2",
    "oppdragsnummer": 79190038,
    "agent": "Marianne Stenseth",
    "office": "Ålesund"
  },
  {
    "id": 336763,
    "type": "searchagent",
    "name": "Ola Grande",
    "email": "grande.ola@gmail.com",
    "lat": 62.463102432602,
    "lon": 6.3286975172223,
    "radius": 2,
    "estatetype": "leilighet,rekkehus,tomannsbolig",
    "price_min": 2000000,
    "price_max": 4500000,
    "area_min": 40,
    "area_max": 200,
    "consent": "2019-04-24T10:14:32+02:00"
  },
  {
    "id": 336078,
    "type": "searchagent",
    "name": "Tor Magne Josefsen",
    "email": "jarnesinvest@gmail.com",
    "lat": 62.390632629395,
    "lon": 6.5413436889648,
    "radius": 1,
    "estatetype": "enebolig",
    "price_min": 2200000,
    "price_max": 3000000,
    "area_min": 250,
    "area_max": 340,
    "consent": "2019-04-21T21:44:07+02:00",
    "oppdragsaddresse": "Parkvegen 4",
    "oppdragsnummer": 21170027,
    "agent": "Espen Garli",
    "office": "Sykkylven / Stranda"
  },
  {
    "id": 335711,
    "type": "searchagent",
    "name": "Mads Aure",
    "email": "Mads_aure@hotmail.com",
    "lat": 62.462768554688,
    "lon": 6.2832856178284,
    "radius": 1,
    "estatetype": "enebolig",
    "price_min": 3200000,
    "price_max": 4300000,
    "area_min": 120,
    "area_max": 170,
    "consent": "2019-04-18T13:59:26+02:00",
    "oppdragsaddresse": "Borgundvegen 629",
    "oppdragsnummer": 79190036,
    "agent": "Marianne Stenseth",
    "office": "Ålesund"
  },
  {
    "id": 335411,
    "type": "searchagent",
    "name": "Hanne Heen",
    "email": "hanne.heen@hotmail.com",
    "lat": 62.588207244873,
    "lon": 6.4448437690735,
    "radius": 1,
    "estatetype": "enebolig",
    "price_min": 1500000,
    "price_max": 2100000,
    "area_min": 110,
    "area_max": 160,
    "consent": "2019-04-16T20:01:51+02:00",
    "oppdragsaddresse": "Strandgata 88",
    "oppdragsnummer": 79190012,
    "agent": "Arild Berentzen",
    "office": "Ålesund"
  },
  {
    "id": 90158,
    "type": "searchagent",
    "name": "Joar Ekornes",
    "email": "joarekornes@msn.com",
    "lat": 62.380954742432,
    "lon": 6.5837216377258,
    "radius": 1,
    "estatetype": "tomannsbolig",
    "price_min": 1200000,
    "price_max": 1800000,
    "area_min": 200,
    "area_max": 280,
    "consent": "2018-11-30T08:45:36+01:00",
    "oppdragsaddresse": "Husnakken 12",
    "oppdragsnummer": 21180066,
    "agent": "Espen Garli",
    "office": "Sykkylven / Stranda"
  },
  {
    "id": 327913,
    "type": "searchagent",
    "name": "Frank-Robert  Estilrønningen",
    "email": "Estilroenningen@hotmail.com",
    "lat": 62.588207244873,
    "lon": 6.4448437690735,
    "radius": 1,
    "estatetype": "enebolig",
    "price_min": 1500000,
    "price_max": 2100000,
    "area_min": 110,
    "area_max": 160,
    "consent": "2019-03-21T14:14:42+01:00",
    "oppdragsaddresse": "Strandgata 88",
    "oppdragsnummer": 79190012,
    "agent": "Arild Berentzen",
    "office": "Ålesund"
  },
  {
    "id": 327067,
    "type": "searchagent",
    "name": "Marianne Klokk",
    "email": "Marianne.klokk@helse-mr.no",
    "lat": 62.585613250732,
    "lon": 6.1236524581909,
    "radius": 1,
    "estatetype": "enebolig",
    "price_min": 3500000,
    "price_max": 4700000,
    "area_min": 100,
    "area_max": 160,
    "consent": "2019-03-18T17:16:28+01:00",
    "oppdragsaddresse": "Rotmyrvegen 14",
    "oppdragsnummer": 79190019,
    "agent": "Marianne Stenseth",
    "office": "Ålesund"
  },
  {
    "id": 321679,
    "type": "searchagent",
    "name": "Magnus Roald",
    "email": "Mrroald@hotmail.com",
    "lat": 62.471939086914,
    "lon": 6.1512575149536,
    "radius": 1,
    "estatetype": "leilighet",
    "price_min": 2600000,
    "price_max": 3500000,
    "area_min": 80,
    "area_max": 130,
    "consent": "2019-03-06T16:41:11+01:00",
    "oppdragsaddresse": "Apotekergata 8",
    "oppdragsnummer": 79190022,
    "agent": "Marianne Stenseth",
    "office": "Ålesund"
  },
  {
    "id": 90692,
    "type": "searchagent",
    "name": "Andreas Spivey",
    "email": "spiveyandreas@gmail.com",
    "lat": 62.380435943604,
    "lon": 6.4296951293945,
    "radius": 1,
    "estatetype": "fritidseiendom",
    "price_min": 800000,
    "price_max": 1200000,
    "area_min": 30,
    "area_max": 60,
    "consent": "2019-01-14T17:31:37+01:00",
    "oppdragsaddresse": "Hovdevegen 96",
    "oppdragsnummer": 21180052,
    "agent": "Espen Garli",
    "office": "Sykkylven / Stranda"
  },
  {
    "id": 118612,
    "type": "searchagent",
    "name": "Knut Tore Johansen Moltu",
    "email": "knut@ummf.no",
    "lat": 62.4581,
    "lon": 6.25656,
    "radius": 0.7,
    "estatetype": "enebolig",
    "price_min": 0,
    "price_max": 10000000,
    "area_min": 90,
    "area_max": 500,
    "consent": "2019-02-21T10:40:06+01:00"
  },
  {
    "id": 83522,
    "type": "searchagent",
    "name": "Roar Mele",
    "email": "roarmele@icloud.com",
    "lat": 62.471652984619,
    "lon": 6.1781325340271,
    "radius": 1,
    "estatetype": "leilighet",
    "price_min": 2000000,
    "price_max": 2000000,
    "area_min": 60,
    "area_max": 90,
    "consent": "2019-02-07T09:26:34+01:00",
    "oppdragsaddresse": "Fjellgata 52A",
    "oppdragsnummer": 79190015,
    "agent": "Arild Berentzen",
    "office": "Ålesund"
  },
  {
    "id": 90843,
    "type": "searchagent",
    "name": "Robert Dornheim",
    "email": "robert_dornheim@hotmail.com",
    "lat": 62.380435943604,
    "lon": 6.4296951293945,
    "radius": 1,
    "estatetype": "fritidseiendom",
    "price_min": 800000,
    "price_max": 1200000,
    "area_min": 30,
    "area_max": 60,
    "consent": "2019-01-20T20:31:04+01:00",
    "oppdragsaddresse": "Hovdevegen 96",
    "oppdragsnummer": 21180052,
    "agent": "Espen Garli",
    "office": "Sykkylven / Stranda"
  },
  {
    "id": 90699,
    "type": "searchagent",
    "name": "Jørn Aune",
    "email": "Jornaune8@gmail.com",
    "lat": 62.390632629395,
    "lon": 6.5413436889648,
    "radius": 1,
    "estatetype": "enebolig",
    "price_min": 2200000,
    "price_max": 3000000,
    "area_min": 250,
    "area_max": 340,
    "consent": "2019-01-14T18:45:41+01:00",
    "oppdragsaddresse": "Parkvegen 4",
    "oppdragsnummer": 21170027,
    "agent": "Espen Garli",
    "office": "Sykkylven / Stranda"
  },
  {
    "id": 90655,
    "type": "searchagent",
    "name": "Anita Vollstad",
    "email": "anitavollstad@gmail.com",
    "lat": 62.333889007568,
    "lon": 6.7620468139648,
    "radius": 1,
    "estatetype": "hytte",
    "price_min": 4100000,
    "price_max": 5400000,
    "area_min": 120,
    "area_max": 170,
    "consent": "2019-01-12T20:44:58+01:00",
    "oppdragsaddresse": "Fjellsætra",
    "oppdragsnummer": 21180002,
    "agent": "Lars Hellevik",
    "office": "Sykkylven / Stranda"
  },
  {
    "id": 91246,
    "type": "searchagent",
    "name": "Henny Gaupseth",
    "email": "hennyrg@hotmail.com",
    "lat": 62.466091156006,
    "lon": 6.3638763427734,
    "radius": 1,
    "estatetype": "leilighet",
    "price_min": 3500000,
    "price_max": 4700000,
    "area_min": 60,
    "area_max": 90,
    "consent": "2019-01-09T17:47:41+01:00",
    "oppdragsaddresse": "Nybøbakken 56 C",
    "oppdragsnummer": 24180021,
    "agent": "Marianne Stenseth",
    "office": "Ålesund"
  },
  {
    "id": 89015,
    "type": "searchagent",
    "name": "Ole Walderhaug",
    "email": "Walderhaug1@hotmail.com",
    "lat": 62.467235565186,
    "lon": 6.3693013191223,
    "radius": 1,
    "estatetype": "enebolig",
    "price_min": 2600000,
    "price_max": 3600000,
    "area_min": 140,
    "area_max": 190,
    "consent": "2018-11-07T09:59:08+01:00",
    "oppdragsaddresse": "Nedre Holen 10 A",
    "oppdragsnummer": 24180009,
    "agent": "Arild Berentzen",
    "office": "Ålesund"
  },
  {
    "id": 90550,
    "type": "searchagent",
    "name": "Øyvind Årdal",
    "email": "oyardal@gmail.com",
    "lat": 62.336994171143,
    "lon": 6.5976676940918,
    "radius": 1,
    "estatetype": "enebolig",
    "price_min": 2400000,
    "price_max": 3300000,
    "area_min": 200,
    "area_max": 270,
    "consent": "2019-01-06T19:11:33+01:00",
    "oppdragsaddresse": "Gylsvegen 10",
    "oppdragsnummer": 21180070,
    "agent": "Espen Garli",
    "office": "Sykkylven / Stranda"
  },
  {
    "id": 175519,
    "type": "searchagent",
    "name": "Stine marie Aarhuus",
    "email": "stinemarieaa@gmail.com",
    "lat": 62.39113,
    "lon": 6.5935,
    "radius": 1,
    "estatetype": "leilighet",
    "price_min": 1500000,
    "price_max": 2200000,
    "area_min": 60,
    "area_max": 90,
    "consent": "2016-08-19T17:01:46+02:00",
    "oppdragsaddresse": "Krikane 14",
    "oppdragsnummer": 21160016,
    "agent": "Espen Garli",
    "office": "Sykkylven / Stranda"
  },
  {
    "id": 90498,
    "type": "searchagent",
    "name": "Camilla Gading",
    "email": "fursethcamilla@gmail.com",
    "lat": 62.442333221436,
    "lon": 6.3662190437317,
    "radius": 1,
    "estatetype": "enebolig",
    "price_min": 3900000,
    "price_max": 5200000,
    "area_min": 120,
    "area_max": 180,
    "consent": "2019-01-04T14:16:47+01:00",
    "oppdragsaddresse": "Gamle Blindheimsveg 52 B",
    "oppdragsnummer": 24180024,
    "agent": "Marianne Stenseth",
    "office": "Ålesund"
  },
  {
    "id": 90480,
    "type": "searchagent",
    "name": "Åshild Stenberg",
    "email": "Ashild91@gmail.com",
    "lat": 62.336994171143,
    "lon": 6.5976676940918,
    "radius": 1,
    "estatetype": "enebolig",
    "price_min": 2400000,
    "price_max": 3300000,
    "area_min": 200,
    "area_max": 270,
    "consent": "2019-01-03T16:01:10+01:00",
    "oppdragsaddresse": "Gylsvegen 10",
    "oppdragsnummer": 21180070,
    "agent": "Espen Garli",
    "office": "Sykkylven / Stranda"
  },
  {
    "id": 312278,
    "type": "searchagent",
    "name": "Peggy Emdal",
    "email": "Peggyemdal@gmail.com",
    "lat": 62.392463684082,
    "lon": 6.6145281791687,
    "radius": 1,
    "estatetype": "enebolig",
    "price_min": 1100000,
    "price_max": 1600000,
    "area_min": 120,
    "area_max": 180,
    "consent": "2018-09-27T23:55:25+02:00",
    "oppdragsaddresse": "Haugsetvegen 170",
    "oppdragsnummer": 21180055,
    "agent": "Lars Hellevik",
    "office": "Sykkylven / Stranda"
  },
  {
    "id": 287611,
    "type": "searchagent",
    "name": "Peggy Emdal",
    "email": "Peggyemdal@gmail.com",
    "lat": 62.377334594727,
    "lon": 6.5947227478027,
    "radius": 1,
    "estatetype": "enebolig",
    "price_min": 2200000,
    "price_max": 3100000,
    "area_min": 160,
    "area_max": 220,
    "consent": "2018-08-08T22:35:23+02:00",
    "oppdragsaddresse": "Reset 2",
    "oppdragsnummer": 21180037,
    "agent": "Espen Garli",
    "office": "Sykkylven / Stranda"
  },
  {
    "id": 306978,
    "type": "searchagent",
    "name": "Peggy  Emdal",
    "email": "Peggyemdal@gmail.com",
    "lat": 62.390525817871,
    "lon": 6.5896000862122,
    "radius": 1,
    "estatetype": "enebolig",
    "price_min": 3200000,
    "price_max": 4300000,
    "area_min": 170,
    "area_max": 230,
    "consent": "2018-09-09T22:49:43+02:00",
    "oppdragsaddresse": "Storgata 41",
    "oppdragsnummer": 21170060,
    "agent": "Espen Garli",
    "office": "Sykkylven / Stranda"
  },
  {
    "id": 90413,
    "type": "searchagent",
    "name": "Kristoffer Sanden",
    "email": "ksanden_93@hotmail.com",
    "lat": 62.437339782715,
    "lon": 6.1714911460876,
    "radius": 1,
    "estatetype": "tomannsbolig",
    "price_min": 1800000,
    "price_max": 2600000,
    "area_min": 120,
    "area_max": 180,
    "consent": "2018-12-28T17:49:00+01:00",
    "oppdragsaddresse": "Sandvikveien 1",
    "oppdragsnummer": 24180013,
    "agent": "Marianne Stenseth",
    "office": "Ålesund"
  },
  {
    "id": 90385,
    "type": "searchagent",
    "name": "Stian Lunde",
    "email": "Lundestian@icoud.com",
    "lat": 62.270637512207,
    "lon": 6.8812665939331,
    "radius": 1,
    "estatetype": "enebolig",
    "price_min": 500000,
    "price_max": 900000,
    "area_min": 80,
    "area_max": 120,
    "consent": "2018-12-25T14:06:53+01:00",
    "oppdragsaddresse": "Dalevegen 525",
    "oppdragsnummer": 21170030,
    "agent": "Lars Hellevik",
    "office": "Sykkylven / Stranda"
  },
  {
    "id": 90049,
    "type": "searchagent",
    "name": "Anne-Lise Frøland",
    "email": "annelise.froeland@gmail.com",
    "lat": 62.469032287598,
    "lon": 6.1906261444092,
    "radius": 1,
    "estatetype": "leilighet",
    "price_min": 4400000,
    "price_max": 5900000,
    "area_min": 80,
    "area_max": 120,
    "consent": "2018-11-24T13:44:48+01:00",
    "oppdragsaddresse": "Sjømannsvegen 17 G",
    "oppdragsnummer": 24180018,
    "agent": "Marianne Stenseth",
    "office": "Ålesund"
  },
  {
    "id": 311877,
    "type": "searchagent",
    "name": "Anne-Lise Frøland",
    "email": "annelise.froeland@gmail.com",
    "lat": 62.461742401123,
    "lon": 6.2888174057007,
    "radius": 1,
    "estatetype": "tomannsbolig",
    "price_min": 3600000,
    "price_max": 4900000,
    "area_min": 100,
    "area_max": 150,
    "consent": "2018-09-26T16:16:23+02:00",
    "oppdragsaddresse": "Holmeskjærvegen 28",
    "oppdragsnummer": 24180007,
    "agent": "Arild Berentzen",
    "office": "Ålesund"
  },
  {
    "id": 241154,
    "type": "searchagent",
    "name": "Morten Nordal",
    "email": "M_nordal89@icloud.com",
    "lat": 62.358219146729,
    "lon": 6.8310446739197,
    "radius": 1,
    "estatetype": "fritidseiendom",
    "price_min": 1300000,
    "price_max": 1800000,
    "area_min": 40,
    "area_max": 70,
    "consent": "2018-01-21T01:26:46+01:00",
    "oppdragsaddresse": "Rishaugen (Fjellsætra)",
    "oppdragsnummer": 21170089,
    "agent": "Lars Hellevik",
    "office": "Sykkylven / Stranda"
  },
  {
    "id": 90043,
    "type": "searchagent",
    "name": "Morten Nordal",
    "email": "m_nordal89@icloud.com",
    "lat": 62.344898223877,
    "lon": 6.7803001403809,
    "radius": 1,
    "estatetype": "hytte",
    "price_min": 1700000,
    "price_max": 2300000,
    "area_min": 50,
    "area_max": 80,
    "consent": "2018-11-23T23:50:16+01:00",
    "oppdragsaddresse": "Tudalsbrekka",
    "oppdragsnummer": 21180059,
    "agent": "Lars Hellevik",
    "office": "Sykkylven / Stranda"
  },
  {
    "id": 89886,
    "type": "searchagent",
    "name": "Svein Roger Slyngstadli",
    "email": "Srs@insoft.net",
    "lat": 62.43058013916,
    "lon": 6.4010934829712,
    "radius": 1,
    "estatetype": "enebolig",
    "price_min": 8700000,
    "price_max": 11300000,
    "area_min": 220,
    "area_max": 300,
    "consent": "2018-11-13T20:50:02+01:00",
    "oppdragsaddresse": "Skaretoppen 6",
    "oppdragsnummer": 24180015,
    "agent": "Marianne Stenseth",
    "office": "Ålesund"
  },
  {
    "id": 89799,
    "type": "searchagent",
    "name": "Anne Sæther Grasdal",
    "email": "asaether57@gmail.com",
    "lat": 62.380435943604,
    "lon": 6.4296951293945,
    "radius": 1,
    "estatetype": "fritidseiendom",
    "price_min": 800000,
    "price_max": 1200000,
    "area_min": 30,
    "area_max": 60,
    "consent": "2018-11-11T11:43:09+01:00",
    "oppdragsaddresse": "Hovdevegen 96",
    "oppdragsnummer": 21180052,
    "agent": "Espen Garli",
    "office": "Sykkylven / Stranda"
  },
  {
    "id": 309293,
    "type": "searchagent",
    "name": "Randi Vartdal Knoff",
    "email": "randivk@gmail.com",
    "lat": 62.471122741699,
    "lon": 6.2285094261169,
    "radius": 1,
    "estatetype": "tomannsbolig",
    "price_min": 3300000,
    "price_max": 4400000,
    "area_min": 90,
    "area_max": 140,
    "consent": "2018-09-18T10:37:45+02:00",
    "oppdragsaddresse": "Fogd Lindholms Veg 6",
    "oppdragsnummer": 24180003,
    "agent": "Arild Berentzen",
    "office": "Ålesund"
  },
  {
    "id": 314828,
    "type": "searchagent",
    "name": "Mona og Lars-Einar Riksheim",
    "email": "mona.riksheim@amatec.no",
    "lat": 62.344898223877,
    "lon": 6.7803001403809,
    "radius": 1,
    "estatetype": "hytte",
    "price_min": 1700000,
    "price_max": 2300000,
    "area_min": 50,
    "area_max": 80,
    "consent": "2018-10-19T13:16:28+02:00",
    "oppdragsaddresse": "Tudalsbrekka",
    "oppdragsnummer": 21180059,
    "agent": "Lars Hellevik",
    "office": "Sykkylven / Stranda"
  },
  {
    "id": 314884,
    "type": "searchagent",
    "name": "Antonia Lopez",
    "email": "antoniared2009@hotmail.com",
    "lat": 62.270637512207,
    "lon": 6.8812665939331,
    "radius": 1,
    "estatetype": "enebolig",
    "price_min": 500000,
    "price_max": 900000,
    "area_min": 80,
    "area_max": 120,
    "consent": "2018-10-20T10:47:46+02:00",
    "oppdragsaddresse": "Dalevegen 525",
    "oppdragsnummer": 21170030,
    "agent": "Lars Hellevik",
    "office": "Sykkylven / Stranda"
  },
  {
    "id": 177549,
    "type": "searchagent",
    "name": "Rolf Urke",
    "email": "rkbyggservice@gmail.com",
    "lat": 62.30972,
    "lon": 6.91485,
    "radius": 1,
    "estatetype": "landbruk",
    "price_min": 2600000,
    "price_max": 3500000,
    "area_min": 210,
    "area_max": 290,
    "consent": "2016-09-03T23:08:49+02:00",
    "oppdragsaddresse": "Langlovegen 20",
    "oppdragsnummer": 21160021,
    "agent": "Lars Hellevik",
    "office": "Sykkylven / Stranda"
  },
  {
    "id": 314859,
    "type": "searchagent",
    "name": "annina brook",
    "email": "rkbyggservice@gmail.com",
    "lat": 62.270637512207,
    "lon": 6.8812665939331,
    "radius": 1,
    "estatetype": "enebolig",
    "price_min": 500000,
    "price_max": 900000,
    "area_min": 80,
    "area_max": 120,
    "consent": "2018-10-19T22:18:46+02:00",
    "oppdragsaddresse": "Dalevegen 525",
    "oppdragsnummer": 21170030,
    "agent": "Lars Hellevik",
    "office": "Sykkylven / Stranda"
  },
  {
    "id": 320939,
    "type": "searchagent",
    "name": "sylviaalnes@hotmail.com",
    "email": "sylviaalnes@hotmail.com",
    "lat": 62.441604614258,
    "lon": 6.208514213562,
    "radius": 1,
    "estatetype": "leilighet",
    "price_min": 1600000,
    "price_max": 2200000,
    "area_min": 50,
    "area_max": 80,
    "consent": "2018-10-03T17:16:56+02:00",
    "oppdragsaddresse": "Hølevegen 79b",
    "oppdragsnummer": 24180006,
    "agent": "Arild Berentzen",
    "office": "Ålesund"
  },
  {
    "id": 305896,
    "type": "searchagent",
    "name": "Svein Even Blakstad",
    "email": "svein.even@griffaviation.com",
    "lat": 62.388473510742,
    "lon": 6.5811305046082,
    "radius": 1,
    "estatetype": "enebolig",
    "price_min": 2000000,
    "price_max": 2700000,
    "area_min": 120,
    "area_max": 170,
    "consent": "2018-09-06T21:41:32+02:00",
    "oppdragsaddresse": "Haugvegen 16",
    "oppdragsnummer": 21180045,
    "agent": "Espen Garli",
    "office": "Sykkylven / Stranda"
  },
  {
    "id": 308614,
    "type": "searchagent",
    "name": "Svein Even  Blakstad",
    "email": "svein.even@griffaviation.com",
    "lat": 62.402961730957,
    "lon": 6.5774621963501,
    "radius": 1,
    "estatetype": "tomannsbolig",
    "price_min": 2000000,
    "price_max": 2700000,
    "area_min": 130,
    "area_max": 190,
    "consent": "2018-09-15T23:44:40+02:00",
    "oppdragsaddresse": "Teigane 2B",
    "oppdragsnummer": 21180056,
    "agent": "Lars Hellevik",
    "office": "Sykkylven / Stranda"
  },
  {
    "id": 313401,
    "type": "searchagent",
    "name": "Lidvard Lundanes",
    "email": "Lidvard.lundanes@gmail.com",
    "lat": 62.344898223877,
    "lon": 6.7803001403809,
    "radius": 1,
    "estatetype": "hytte",
    "price_min": 1700000,
    "price_max": 2300000,
    "area_min": 50,
    "area_max": 80,
    "consent": "2018-10-02T13:31:08+02:00",
    "oppdragsaddresse": "Tudalsbrekka",
    "oppdragsnummer": 21180059,
    "agent": "Lars Hellevik",
    "office": "Sykkylven / Stranda"
  },
  {
    "id": 313115,
    "type": "searchagent",
    "name": "Sverre Lorgen Øvrelid",
    "email": "sverreovrelid@hotmail.com",
    "lat": 62.461742401123,
    "lon": 6.2888174057007,
    "radius": 1,
    "estatetype": "tomannsbolig",
    "price_min": 3600000,
    "price_max": 4900000,
    "area_min": 100,
    "area_max": 150,
    "consent": "2018-10-01T08:26:17+02:00",
    "oppdragsaddresse": "Holmeskjærvegen 28",
    "oppdragsnummer": 24180007,
    "agent": "Arild Berentzen",
    "office": "Ålesund"
  },
  {
    "id": 313095,
    "type": "searchagent",
    "name": "Gaute Gaudestad",
    "email": "gaute.gaudestad@outlook.com",
    "lat": 62.344898223877,
    "lon": 6.7803001403809,
    "radius": 1,
    "estatetype": "hytte",
    "price_min": 1700000,
    "price_max": 2300000,
    "area_min": 50,
    "area_max": 80,
    "consent": "2018-10-01T07:05:45+02:00",
    "oppdragsaddresse": "Tudalsbrekka",
    "oppdragsnummer": 21180059,
    "agent": "Lars Hellevik",
    "office": "Sykkylven / Stranda"
  },
  {
    "id": 312878,
    "type": "searchagent",
    "name": "Ragnhild  Strømme",
    "email": "ragnhildstromme@hotmail.com",
    "lat": 62.393005371094,
    "lon": 6.5418386459351,
    "radius": 1,
    "estatetype": "enebolig",
    "price_min": 1200000,
    "price_max": 1700000,
    "area_min": 90,
    "area_max": 140,
    "consent": "2018-09-30T14:27:28+02:00",
    "oppdragsaddresse": "Davnesvegen 27",
    "oppdragsnummer": 21180058,
    "agent": "Espen Garli",
    "office": "Sykkylven / Stranda"
  },
  {
    "id": 277086,
    "type": "searchagent",
    "name": "Ragnhild Strømme",
    "email": "Ragnhildstromme@hotmail.com",
    "lat": 62.299556732178,
    "lon": 6.701536655426,
    "radius": 1,
    "estatetype": "enebolig",
    "price_min": 1300000,
    "price_max": 1800000,
    "area_min": 130,
    "area_max": 180,
    "consent": "2018-06-21T18:44:14+02:00",
    "oppdragsaddresse": "Holevegen 33",
    "oppdragsnummer": 21180041,
    "agent": "Lars Hellevik",
    "office": "Sykkylven / Stranda"
  },
  {
    "id": 312637,
    "type": "searchagent",
    "name": "Øivind Nilsen",
    "email": "oyvind.nilsen@mimer.no",
    "lat": 62.461742401123,
    "lon": 6.2888174057007,
    "radius": 1,
    "estatetype": "tomannsbolig",
    "price_min": 3600000,
    "price_max": 4900000,
    "area_min": 100,
    "area_max": 150,
    "consent": "2018-09-29T14:03:10+02:00",
    "oppdragsaddresse": "Holmeskjærvegen 28",
    "oppdragsnummer": 24180007,
    "agent": "Arild Berentzen",
    "office": "Ålesund"
  },
  {
    "id": 309099,
    "type": "searchagent",
    "name": "Jelena Samotskina",
    "email": "knopka_1@hotmail.com",
    "lat": 62.495586395264,
    "lon": 6.3138675689697,
    "radius": 1,
    "estatetype": "enebolig",
    "price_min": 1900000,
    "price_max": 2700000,
    "area_min": 220,
    "area_max": 300,
    "consent": "2018-09-17T16:43:22+02:00",
    "oppdragsaddresse": "Storfarvegen 143",
    "oppdragsnummer": 24180004,
    "agent": "Arild Berentzen",
    "office": "Ålesund"
  },
  {
    "id": 312058,
    "type": "searchagent",
    "name": "jann harald  røst",
    "email": "jannharald.rost@gmail.com",
    "lat": 62.344898223877,
    "lon": 6.7803001403809,
    "radius": 1,
    "estatetype": "hytte",
    "price_min": 1700000,
    "price_max": 2300000,
    "area_min": 50,
    "area_max": 80,
    "consent": "2018-09-27T10:08:02+02:00",
    "oppdragsaddresse": "Tudalsbrekka",
    "oppdragsnummer": 21180059,
    "agent": "Lars Hellevik",
    "office": "Sykkylven / Stranda"
  },
  {
    "id": 312030,
    "type": "searchagent",
    "name": "Roar Strandman",
    "email": "roar_strandman@hotmail.com",
    "lat": 62.461742401123,
    "lon": 6.2888174057007,
    "radius": 1,
    "estatetype": "tomannsbolig",
    "price_min": 3600000,
    "price_max": 4900000,
    "area_min": 100,
    "area_max": 150,
    "consent": "2018-09-27T08:18:17+02:00",
    "oppdragsaddresse": "Holmeskjærvegen 28",
    "oppdragsnummer": 24180007,
    "agent": "Arild Berentzen",
    "office": "Ålesund"
  },
  {
    "id": 312012,
    "type": "searchagent",
    "name": "Anne Line Jerstad",
    "email": "aljerstad@gmail.com",
    "lat": 62.344898223877,
    "lon": 6.7803001403809,
    "radius": 1,
    "estatetype": "hytte",
    "price_min": 1700000,
    "price_max": 2300000,
    "area_min": 50,
    "area_max": 80,
    "consent": "2018-09-27T01:23:47+02:00",
    "oppdragsaddresse": "Tudalsbrekka",
    "oppdragsnummer": 21180059,
    "agent": "Lars Hellevik",
    "office": "Sykkylven / Stranda"
  },
  {
    "id": 243724,
    "type": "searchagent",
    "name": "anne line jerstad",
    "email": "aljerstad@gmail.com",
    "lat": 62.34493637085,
    "lon": 6.7865252494812,
    "radius": 1,
    "estatetype": "fritidseiendom",
    "price_min": 1800000,
    "price_max": 2600000,
    "area_min": 40,
    "area_max": 80,
    "consent": "2018-02-04T21:54:55+01:00",
    "oppdragsaddresse": "Fjellsætra",
    "oppdragsnummer": 21170063,
    "agent": "Lars Hellevik",
    "office": "Sykkylven / Stranda"
  },
  {
    "id": 311804,
    "type": "searchagent",
    "name": "Lillian Sulebakk",
    "email": "lillians_89@hotmail.com",
    "lat": 62.441604614258,
    "lon": 6.208514213562,
    "radius": 1,
    "estatetype": "leilighet",
    "price_min": 1600000,
    "price_max": 2200000,
    "area_min": 50,
    "area_max": 80,
    "consent": "2018-09-26T10:05:17+02:00",
    "oppdragsaddresse": "Hølevegen 79b",
    "oppdragsnummer": 24180006,
    "agent": "Arild Berentzen",
    "office": "Ålesund"
  },
  {
    "id": 311617,
    "type": "searchagent",
    "name": "Fred Anton Alvestad",
    "email": "Fred.alvestad@hotmail.com",
    "lat": 62.344898223877,
    "lon": 6.7803001403809,
    "radius": 1,
    "estatetype": "hytte",
    "price_min": 1700000,
    "price_max": 2300000,
    "area_min": 50,
    "area_max": 80,
    "consent": "2018-09-25T16:35:52+02:00",
    "oppdragsaddresse": "Tudalsbrekka",
    "oppdragsnummer": 21180059,
    "agent": "Lars Hellevik",
    "office": "Sykkylven / Stranda"
  },
  {
    "id": 311232,
    "type": "searchagent",
    "name": "Cecilie  Kvernevik",
    "email": "c_kvernevik@hotmail.com",
    "lat": 62.495586395264,
    "lon": 6.3138675689697,
    "radius": 1,
    "estatetype": "enebolig",
    "price_min": 1900000,
    "price_max": 2700000,
    "area_min": 220,
    "area_max": 300,
    "consent": "2018-09-24T11:55:41+02:00",
    "oppdragsaddresse": "Storfarvegen 143",
    "oppdragsnummer": 24180004,
    "agent": "Arild Berentzen",
    "office": "Ålesund"
  },
  {
    "id": 310412,
    "type": "searchagent",
    "name": "Helene Loland",
    "email": "helene_e_l@hotmail.com",
    "lat": 62.376155853271,
    "lon": 6.5832476615906,
    "radius": 1,
    "estatetype": "enebolig",
    "price_min": 2100000,
    "price_max": 2900000,
    "area_min": 120,
    "area_max": 180,
    "consent": "2018-09-21T14:48:25+02:00",
    "oppdragsaddresse": "Blindheimsvegen 36",
    "oppdragsnummer": 21180062,
    "agent": "Lars Hellevik",
    "office": "Sykkylven / Stranda"
  },
  {
    "id": 310294,
    "type": "searchagent",
    "name": "Torgrim Ramsfjell",
    "email": "netshoprams@gmail.com",
    "lat": 62.495586395264,
    "lon": 6.3138675689697,
    "radius": 1,
    "estatetype": "enebolig",
    "price_min": 1900000,
    "price_max": 2700000,
    "area_min": 220,
    "area_max": 300,
    "consent": "2018-09-21T09:05:34+02:00",
    "oppdragsaddresse": "Storfarvegen 143",
    "oppdragsnummer": 24180004,
    "agent": "Arild Berentzen",
    "office": "Ålesund"
  },
  {
    "id": 309873,
    "type": "searchagent",
    "name": "Tove Aure",
    "email": "toveaure@hotmail.com",
    "lat": 62.393005371094,
    "lon": 6.5418386459351,
    "radius": 1,
    "estatetype": "enebolig",
    "price_min": 1200000,
    "price_max": 1700000,
    "area_min": 90,
    "area_max": 140,
    "consent": "2018-09-19T22:15:20+02:00",
    "oppdragsaddresse": "Davnesvegen 27",
    "oppdragsnummer": 21180058,
    "agent": "Espen Garli",
    "office": "Sykkylven / Stranda"
  },
  {
    "id": 307634,
    "type": "searchagent",
    "name": "Kristel Røstberg",
    "email": "Kristel.rostberg@gmail.com",
    "lat": 62.470405578613,
    "lon": 6.3192853927612,
    "radius": 1,
    "estatetype": "enebolig",
    "price_min": 4400000,
    "price_max": 5800000,
    "area_min": 140,
    "area_max": 200,
    "consent": "2018-09-11T17:22:20+02:00",
    "oppdragsaddresse": "Nakkeknausen 8",
    "oppdragsnummer": 24180002,
    "agent": "Arild Berentzen",
    "office": "Ålesund"
  },
  {
    "id": 309630,
    "type": "searchagent",
    "name": "Lena  Børge",
    "email": "Lena_m_b@hotmail.com",
    "lat": 62.471122741699,
    "lon": 6.2285094261169,
    "radius": 1,
    "estatetype": "tomannsbolig",
    "price_min": 3300000,
    "price_max": 4400000,
    "area_min": 90,
    "area_max": 140,
    "consent": "2018-09-19T10:07:55+02:00",
    "oppdragsaddresse": "Fogd Lindholms Veg 6",
    "oppdragsnummer": 24180003,
    "agent": "Arild Berentzen",
    "office": "Ålesund"
  },
  {
    "id": 307821,
    "type": "searchagent",
    "name": "Kristian Frøland",
    "email": "kfroeland@gmail.com",
    "lat": 62.470405578613,
    "lon": 6.3192853927612,
    "radius": 1,
    "estatetype": "enebolig",
    "price_min": 4400000,
    "price_max": 5800000,
    "area_min": 140,
    "area_max": 200,
    "consent": "2018-09-12T13:06:02+02:00",
    "oppdragsaddresse": "Nakkeknausen 8",
    "oppdragsnummer": 24180002,
    "agent": "Arild Berentzen",
    "office": "Ålesund"
  },
  {
    "id": 309385,
    "type": "searchagent",
    "name": "Kristian Frøland",
    "email": "kfroeland@gmail.com",
    "lat": 62.471122741699,
    "lon": 6.2285094261169,
    "radius": 1,
    "estatetype": "tomannsbolig",
    "price_min": 3300000,
    "price_max": 4400000,
    "area_min": 90,
    "area_max": 140,
    "consent": "2018-09-18T12:16:29+02:00",
    "oppdragsaddresse": "Fogd Lindholms Veg 6",
    "oppdragsnummer": 24180003,
    "agent": "Arild Berentzen",
    "office": "Ålesund"
  },
  {
    "id": 307597,
    "type": "searchagent",
    "name": "Kristian Severeide",
    "email": "kristian.severeide@gmail.com",
    "lat": 62.470405578613,
    "lon": 6.3192853927612,
    "radius": 1,
    "estatetype": "enebolig",
    "price_min": 4400000,
    "price_max": 5800000,
    "area_min": 140,
    "area_max": 200,
    "consent": "2018-09-11T14:50:03+02:00",
    "oppdragsaddresse": "Nakkeknausen 8",
    "oppdragsnummer": 24180002,
    "agent": "Arild Berentzen",
    "office": "Ålesund"
  },
  {
    "id": 306517,
    "type": "searchagent",
    "name": "Sølvi Britt Skylstad",
    "email": "s.skylstad@gmail.com",
    "lat": 62.38138961792,
    "lon": 6.5381507873535,
    "radius": 1,
    "estatetype": "enebolig",
    "price_min": 3700000,
    "price_max": 5000000,
    "area_min": 270,
    "area_max": 370,
    "consent": "2018-09-08T16:35:10+02:00",
    "oppdragsaddresse": "Helleskjerva 91",
    "oppdragsnummer": 21180060,
    "agent": "Espen Garli",
    "office": "Sykkylven / Stranda"
  },
  {
    "id": 305918,
    "type": "searchagent",
    "name": "Frode Svindseth",
    "email": "frodesv@gmail.com",
    "lat": 62.308437347412,
    "lon": 6.9483485221863,
    "radius": 1,
    "estatetype": "leilighet",
    "price_min": 1300000,
    "price_max": 1900000,
    "area_min": 60,
    "area_max": 100,
    "consent": "2018-09-07T01:59:37+02:00",
    "oppdragsaddresse": "Sjøgata 2",
    "oppdragsnummer": 21180030,
    "agent": "Lars Hellevik",
    "office": "Sykkylven / Stranda"
  },
  {
    "id": 304195,
    "type": "searchagent",
    "name": "Eirik Fosse",
    "email": "eirik.fosse@gmail.com",
    "lat": 62.40425491333,
    "lon": 6.5798420906067,
    "radius": 1,
    "estatetype": "enebolig",
    "price_min": 2600000,
    "price_max": 3500000,
    "area_min": 200,
    "area_max": 270,
    "consent": "2018-09-02T11:09:18+02:00",
    "oppdragsaddresse": "Ura 37",
    "oppdragsnummer": 21170011,
    "agent": "Espen Garli",
    "office": "Sykkylven / Stranda"
  },
  {
    "id": 303635,
    "type": "searchagent",
    "name": "Iver Fallet",
    "email": "Iverfallet@gmail.com",
    "lat": 62.39217376709,
    "lon": 6.5476021766663,
    "radius": 1,
    "estatetype": "leilighet",
    "price_min": 200000,
    "price_max": 400000,
    "area_min": 40,
    "area_max": 80,
    "consent": "2018-09-01T10:19:12+02:00",
    "oppdragsaddresse": "Fabrikkvegen 3",
    "oppdragsnummer": 21180051,
    "agent": "Espen Garli",
    "office": "Sykkylven / Stranda"
  },
  {
    "id": 301844,
    "type": "searchagent",
    "name": "Tor-Erik Klokk",
    "email": "tklokk@live.com",
    "lat": 62.378257751465,
    "lon": 6.5928473472595,
    "radius": 1,
    "estatetype": "leilighet",
    "price_min": 1400000,
    "price_max": 2000000,
    "area_min": 50,
    "area_max": 90,
    "consent": "2018-08-28T18:19:35+02:00",
    "oppdragsaddresse": "Furevegen 12 C",
    "oppdragsnummer": 21180049,
    "agent": "Espen Garli",
    "office": "Sykkylven / Stranda"
  },
  {
    "id": 300320,
    "type": "searchagent",
    "name": "Stian Hellebostad",
    "email": "stianhelle@hotmail.com",
    "lat": 62.398300170898,
    "lon": 6.6149997711182,
    "radius": 1,
    "estatetype": "boligtomt",
    "price_min": 300000,
    "price_max": 600000,
    "area_min": 0,
    "area_max": 10,
    "consent": "2018-08-26T13:56:12+02:00",
    "oppdragsaddresse": "Dalevegen",
    "oppdragsnummer": 21180011,
    "agent": "Espen Garli",
    "office": "Sykkylven / Stranda"
  },
  {
    "id": 298544,
    "type": "searchagent",
    "name": "Martin Lotz",
    "email": "malotz@ok.de",
    "lat": 62.379020690918,
    "lon": 6.5789566040039,
    "radius": 1,
    "estatetype": "enebolig",
    "price_min": 2100000,
    "price_max": 2900000,
    "area_min": 170,
    "area_max": 240,
    "consent": "2018-08-23T15:15:00+02:00",
    "oppdragsaddresse": "Geilevegen 18",
    "oppdragsnummer": 21180034,
    "agent": "Espen Garli",
    "office": "Sykkylven / Stranda"
  },
  {
    "id": 202408,
    "type": "searchagent",
    "name": "Jørn Strømmegjerde",
    "email": "Jornstromme@gmail.com",
    "lat": 62.380825042725,
    "lon": 6.5870847702026,
    "radius": 1,
    "estatetype": "enebolig",
    "price_min": 3500000,
    "price_max": 4700000,
    "area_min": 280,
    "area_max": 380,
    "consent": "2017-05-14T18:00:04+02:00",
    "oppdragsaddresse": "Reitehaugvegen 13",
    "oppdragsnummer": 21160022,
    "agent": "Espen Garli",
    "office": "Sykkylven / Stranda"
  },
  {
    "id": 252453,
    "type": "searchagent",
    "name": "Karoline Gjerde",
    "email": "karolinegjerde@hotmail.no",
    "lat": 62.404132843018,
    "lon": 6.5724782943726,
    "radius": 1,
    "estatetype": "enebolig",
    "price_min": 2900000,
    "price_max": 3900000,
    "area_min": 140,
    "area_max": 200,
    "consent": "2018-03-19T11:28:55+01:00",
    "oppdragsaddresse": "Fauskevegen 70",
    "oppdragsnummer": 21180016,
    "agent": "Espen Garli",
    "office": "Sykkylven / Stranda"
  },
  {
    "id": 295518,
    "type": "searchagent",
    "name": "Steinar Asbjørnsen",
    "email": "Steinarasb@gmail.com",
    "lat": 62.388473510742,
    "lon": 6.5811305046082,
    "radius": 1,
    "estatetype": "enebolig",
    "price_min": 2000000,
    "price_max": 2700000,
    "area_min": 120,
    "area_max": 170,
    "consent": "2018-08-19T16:23:02+02:00",
    "oppdragsaddresse": "Haugvegen 16",
    "oppdragsnummer": 21180045,
    "agent": "Espen Garli",
    "office": "Sykkylven / Stranda"
  },
  {
    "id": 230543,
    "type": "searchagent",
    "name": "Hans Kenneth Sundsbø",
    "email": "Sundsbo.fpk@gmail.com",
    "lat": 62.386604309082,
    "lon": 6.5473532676697,
    "radius": 1,
    "estatetype": "enebolig",
    "price_min": 1300000,
    "price_max": 1900000,
    "area_min": 140,
    "area_max": 200,
    "consent": "2017-10-20T20:36:32+02:00",
    "oppdragsaddresse": "Geila 15",
    "oppdragsnummer": 21170066,
    "agent": "Espen Garli",
    "office": "Sykkylven / Stranda"
  },
  {
    "id": 205149,
    "type": "searchagent",
    "name": "Hans Sundsbø",
    "email": "Sundsbo.fpk@gmail.com",
    "lat": 62.397979736328,
    "lon": 6.4907245635986,
    "radius": 1,
    "estatetype": "enebolig",
    "price_min": 2200000,
    "price_max": 3000000,
    "area_min": 110,
    "area_max": 160,
    "consent": "2017-05-31T07:41:24+02:00",
    "oppdragsaddresse": "Sørestrandvegen 1095",
    "oppdragsnummer": 21170024,
    "agent": "Espen Garli",
    "office": "Sykkylven / Stranda"
  },
  {
    "id": 293231,
    "type": "searchagent",
    "name": "Berit Hagen",
    "email": "berit_hag_88@hotmail.com",
    "lat": 62.475063323975,
    "lon": 6.1607341766357,
    "radius": 1,
    "estatetype": "leilighet",
    "price_min": 2200000,
    "price_max": 3000000,
    "area_min": 50,
    "area_max": 80,
    "consent": "2018-08-16T18:22:22+02:00",
    "oppdragsaddresse": "Skaregata 16 F",
    "oppdragsnummer": 24180001,
    "agent": "Arild Berentzen",
    "office": "Ålesund"
  },
  {
    "id": 287119,
    "type": "searchagent",
    "name": "Torbjørn Krogen",
    "email": "tkrogen@gmail.com",
    "lat": 62.310169219971,
    "lon": 6.9435563087463,
    "radius": 1,
    "estatetype": "enebolig",
    "price_min": 1400000,
    "price_max": 2000000,
    "area_min": 120,
    "area_max": 180,
    "consent": "2018-08-07T23:45:54+02:00",
    "oppdragsaddresse": "Fagerlivegen 16",
    "oppdragsnummer": 21170076,
    "agent": "Lars Hellevik",
    "office": "Sykkylven / Stranda"
  },
  {
    "id": 262870,
    "type": "searchagent",
    "name": "Grzegorz Gorbacz",
    "email": "g.gorbacz@gmail.com",
    "lat": 62.340599060059,
    "lon": 6.5770506858826,
    "radius": 1,
    "estatetype": "enebolig",
    "price_min": 700000,
    "price_max": 1100000,
    "area_min": 90,
    "area_max": 140,
    "consent": "2018-05-02T16:50:47+02:00",
    "oppdragsaddresse": "Sørestrandvegen 130",
    "oppdragsnummer": 21180025,
    "agent": "Espen Garli",
    "office": "Sykkylven / Stranda"
  },
  {
    "id": 263440,
    "type": "searchagent",
    "name": "Grzegorz Gorbacz",
    "email": "g.gorbacz@gmail.com",
    "lat": 62.381855010986,
    "lon": 6.5512294769287,
    "radius": 1,
    "estatetype": "enebolig",
    "price_min": 2000000,
    "price_max": 2800000,
    "area_min": 110,
    "area_max": 160,
    "consent": "2018-05-04T22:04:57+02:00",
    "oppdragsaddresse": "Helleskjerva 9",
    "oppdragsnummer": 21180026,
    "agent": "Espen Garli",
    "office": "Sykkylven / Stranda"
  },
  {
    "id": 262753,
    "type": "searchagent",
    "name": "Grzegorz Gorbacz",
    "email": "g.gorbacz@gmail.com",
    "lat": 62.385425567627,
    "lon": 6.5772242546082,
    "radius": 1,
    "estatetype": "leilighet",
    "price_min": 1600000,
    "price_max": 2200000,
    "area_min": 60,
    "area_max": 100,
    "consent": "2018-05-02T10:53:59+02:00",
    "oppdragsaddresse": "Kyrkjevegen 91",
    "oppdragsnummer": 21180024,
    "agent": "Espen Garli",
    "office": "Sykkylven / Stranda"
  },
  {
    "id": 264378,
    "type": "searchagent",
    "name": "Grzegorz Gorbacz",
    "email": "g.gorbacz@gmail.com",
    "lat": 62.381855010986,
    "lon": 6.5512294769287,
    "radius": 1,
    "estatetype": "enebolig",
    "price_min": 2000000,
    "price_max": 2800000,
    "area_min": 110,
    "area_max": 160,
    "consent": "2018-05-09T07:38:34+02:00",
    "oppdragsaddresse": "Helleskjerva 9",
    "oppdragsnummer": 21180026,
    "agent": "Espen Garli",
    "office": "Sykkylven / Stranda"
  },
  {
    "id": 264004,
    "type": "searchagent",
    "name": "Grzegorz Gorbacz",
    "email": "g.gorbacz@gmail.com",
    "lat": 62.381855010986,
    "lon": 6.5512294769287,
    "radius": 1,
    "estatetype": "enebolig",
    "price_min": 2000000,
    "price_max": 2800000,
    "area_min": 110,
    "area_max": 160,
    "consent": "2018-05-07T10:32:44+02:00",
    "oppdragsaddresse": "Helleskjerva 9",
    "oppdragsnummer": 21180026,
    "agent": "Espen Garli",
    "office": "Sykkylven / Stranda"
  },
  {
    "id": 262763,
    "type": "searchagent",
    "name": "Grzegorz Gorbacz",
    "email": "g.gorbacz@gmail.com",
    "lat": 62.39905166626,
    "lon": 6.5942578315735,
    "radius": 1,
    "estatetype": "leilighet",
    "price_min": 2100000,
    "price_max": 2900000,
    "area_min": 80,
    "area_max": 130,
    "consent": "2018-05-02T10:59:37+02:00",
    "oppdragsaddresse": "Kagholvegen 30 A",
    "oppdragsnummer": 21180027,
    "agent": "Espen Garli",
    "office": "Sykkylven / Stranda"
  },
  {
    "id": 279531,
    "type": "searchagent",
    "name": "Rigmor Tronstad",
    "email": "rigmor_tronstad@live.no",
    "lat": 62.340217590332,
    "lon": 6.5774688720703,
    "radius": 1,
    "estatetype": "enebolig",
    "price_min": 1200000,
    "price_max": 1700000,
    "area_min": 90,
    "area_max": 140,
    "consent": "2018-07-04T15:22:00+02:00",
    "oppdragsaddresse": "Sørestrandvegen 126",
    "oppdragsnummer": 21180021,
    "agent": "Lars Hellevik",
    "office": "Sykkylven / Stranda"
  },
  {
    "id": 270775,
    "type": "searchagent",
    "name": "Anders Karlsson",
    "email": "andyk8123@gmail.com",
    "lat": 62.291164398193,
    "lon": 6.9636368751526,
    "radius": 1,
    "estatetype": "enebolig",
    "price_min": 1100000,
    "price_max": 1600000,
    "area_min": 150,
    "area_max": 210,
    "consent": "2018-06-02T11:08:11+02:00",
    "oppdragsaddresse": "Kvernhusvegen 6",
    "oppdragsnummer": 21170098,
    "agent": "Lars Hellevik",
    "office": "Sykkylven / Stranda"
  },