[
  {
    "id": 391944,
    "type": "searchagent",
    "name": "Kristine Stærfelt",
    "email": "kristine.staerfelt@gmail.com",
    "lat": 58.465278217173,
    "lon": 8.738532417195,
    "radius": 2,
    "estatetype": "enebolig",
    "price_min": 2000000,
    "price_max": 3000000,
    "area_min": 50,
    "area_max": 280,
    "consent": "2020-01-17T10:29:37+01:00"
  },
  {
    "id": 311415,
    "type": "searchagent",
    "name": "Rune Asbjørnsen",
    "email": "rune.asbjornsen@live.no",
    "lat": 58.662601470947,
    "lon": 8.2468194961548,
    "radius": 1,
    "estatetype": "landbruk",
    "price_min": 800000,
    "price_max": 1200000,
    "area_min": 80,
    "area_max": 120,
    "consent": "2018-09-24T20:45:55+02:00",
    "oppdragsaddresse": "Øvre Lauvrak 195",
    "oppdragsnummer": 40180171,
    "agent": "Jan Terje Øygarden",
    "office": "Arendal"
  },
  {
    "id": 402330,
    "type": "searchagent",
    "name": "Andreas Nystedt",
    "email": "nystedt@outlook.com",
    "lat": 59.749069213867,
    "lon": 10.222178459167,
    "radius": 1,
    "estatetype": "enebolig",
    "price_min": 7300000,
    "price_max": 9500000,
    "area_min": 130,
    "area_max": 190,
    "consent": "2020-04-01T13:32:28+02:00",
    "oppdragsaddresse": "Sven Svensens vei 6",
    "oppdragsnummer": 11200038,
    "agent": "Nina Widerøe",
    "office": "Drammen"
  },
  {
    "id": 400136,
    "type": "searchagent",
    "name": "Geir Ellingsen",
    "email": "geirelling@hotmail.com",
    "lat": 59.746616363525,
    "lon": 10.218821525574,
    "radius": 1,
    "estatetype": "enebolig",
    "price_min": 7900000,
    "price_max": 10400000,
    "area_min": 160,
    "area_max": 230,
    "consent": "2020-03-06T23:09:56+01:00",
    "oppdragsaddresse": "Løkkebergveien 17",
    "oppdragsnummer": 11200023,
    "agent": "Nina Widerøe",
    "office": "Drammen"
  },
  {
    "id": 402317,
    "type": "searchagent",
    "name": "Bjarne Fevang",
    "email": "bafevang@online.no",
    "lat": 59.749069213867,
    "lon": 10.222178459167,
    "radius": 1,
    "estatetype": "enebolig",
    "price_min": 7300000,
    "price_max": 9500000,
    "area_min": 130,
    "area_max": 190,
    "consent": "2020-04-01T00:35:11+02:00",
    "oppdragsaddresse": "Sven Svensens vei 6",
    "oppdragsnummer": 11200038,
    "agent": "Nina Widerøe",
    "office": "Drammen"
  },
  {
    "id": 402217,
    "type": "searchagent",
    "name": "Øyvind A Trollerud",
    "email": "oyt@yx.no",
    "lat": 59.749069213867,
    "lon": 10.222178459167,
    "radius": 1,
    "estatetype": "enebolig",
    "price_min": 7300000,
    "price_max": 9500000,
    "area_min": 130,
    "area_max": 190,
    "consent": "2020-03-30T14:01:11+02:00",
    "oppdragsaddresse": "Sven Svensens vei 6",
    "oppdragsnummer": 11200038,
    "agent": "Nina Widerøe",
    "office": "Drammen"
  },
  {
    "id": 402090,
    "type": "searchagent",
    "name": "Jon Hafstad",
    "email": "joha313@gmail.com",
    "lat": 58.446506500244,
    "lon": 8.7453880310059,
    "radius": 1,
    "estatetype": "enebolig",
    "price_min": 5100000,
    "price_max": 6800000,
    "area_min": 150,
    "area_max": 210,
    "consent": "2020-03-30T09:50:13+02:00",
    "oppdragsaddresse": "Seelanders Bakke 11",
    "oppdragsnummer": 40190188,
    "agent": "Glenn J. Olsen",
    "office": "Arendal"
  },
  {
    "id": 402087,
    "type": "searchagent",
    "name": "Tanija Røine",
    "email": "hallingrud@gmail.com",
    "lat": 59.749069213867,
    "lon": 10.222178459167,
    "radius": 1,
    "estatetype": "enebolig",
    "price_min": 7300000,
    "price_max": 9500000,
    "area_min": 130,
    "area_max": 190,
    "consent": "2020-03-30T09:42:54+02:00",
    "oppdragsaddresse": "Sven Svensens vei 6",
    "oppdragsnummer": 11200038,
    "agent": "Nina Widerøe",
    "office": "Drammen"
  },
  {
    "id": 402037,
    "type": "searchagent",
    "name": "Truls Ørpen",
    "email": "truls.orpen@sourcenet.no",
    "lat": 59.749069213867,
    "lon": 10.222178459167,
    "radius": 1,
    "estatetype": "enebolig",
    "price_min": 7300000,
    "price_max": 9500000,
    "area_min": 130,
    "area_max": 190,
    "consent": "2020-03-29T12:45:09+02:00",
    "oppdragsaddresse": "Sven Svensens vei 6",
    "oppdragsnummer": 11200038,
    "agent": "Nina Widerøe",
    "office": "Drammen"
  },
  {
    "id": 401990,
    "type": "searchagent",
    "name": "Elise Haraldsrud Lien",
    "email": "eliseharlien@gmail.com",
    "lat": 59.742527008057,
    "lon": 10.212759971619,
    "radius": 1,
    "estatetype": "leilighet",
    "price_min": 3200000,
    "price_max": 4300000,
    "area_min": 40,
    "area_max": 80,
    "consent": "2020-03-28T13:28:25+01:00",
    "oppdragsaddresse": "Nedre Storgate 33",
    "oppdragsnummer": 11200024,
    "agent": "Simen Eknes Slotsvig",
    "office": "Drammen"
  },
  {
    "id": 401970,
    "type": "searchagent",
    "name": "Jørund Rytman",
    "email": "rytman@smbnorge.no",
    "lat": 59.750873565674,
    "lon": 10.19154548645,
    "radius": 1,
    "estatetype": "enebolig",
    "price_min": 8400000,
    "price_max": 11000000,
    "area_min": 170,
    "area_max": 240,
    "consent": "2020-03-28T01:24:39+01:00",
    "oppdragsaddresse": "Sanatorieveien 6",
    "oppdragsnummer": 11190096,
    "agent": "Simen Eknes Slotsvig",
    "office": "Drammen"
  },
  {
    "id": 383504,
    "type": "searchagent",
    "name": "Per Olav Collin",
    "email": "perolav.collin@gmail.com",
    "lat": 58.446506500244,
    "lon": 8.7453880310059,
    "radius": 1,
    "estatetype": "enebolig",
    "price_min": 5100000,
    "price_max": 6800000,
    "area_min": 150,
    "area_max": 210,
    "consent": "2019-11-03T19:12:43+01:00",
    "oppdragsaddresse": "Seelanders Bakke 11",
    "oppdragsnummer": 40190188,
    "agent": "Glenn J. Olsen",
    "office": "Arendal"
  },
  {
    "id": 401451,
    "type": "searchagent",
    "name": "Per Olav Collin",
    "email": "perolav.collin@gmail.com",
    "lat": 58.430805206299,
    "lon": 8.745659828186,
    "radius": 1,
    "estatetype": "enebolig",
    "price_min": 3500000,
    "price_max": 4700000,
    "area_min": 140,
    "area_max": 200,
    "consent": "2020-03-20T14:13:49+01:00",
    "oppdragsaddresse": "Solheimveien 12",
    "oppdragsnummer": 40200029,
    "agent": "Linn Coucheron Berli",
    "office": "Arendal"
  },
  {
    "id": 401312,
    "type": "searchagent",
    "name": "Torbjørn  Iversen",
    "email": "torbjorn.iversen@roros.net",
    "lat": 59.682147979736,
    "lon": 10.357542991638,
    "radius": 1,
    "estatetype": "enebolig",
    "price_min": 4600000,
    "price_max": 6000000,
    "area_min": 150,
    "area_max": 210,
    "consent": "2020-03-18T13:24:26+01:00",
    "oppdragsaddresse": "Skauveien 12",
    "oppdragsnummer": 11200015,
    "agent": "Anders Ødenes",
    "office": "Drammen"
  },
  {
    "id": 401314,
    "type": "searchagent",
    "name": "Torbjørn  Iversen",
    "email": "torbjorn.iversen@roros.net",
    "lat": 59.682147979736,
    "lon": 10.357542991638,
    "radius": 1,
    "estatetype": "enebolig",
    "price_min": 4600000,
    "price_max": 6000000,
    "area_min": 150,
    "area_max": 210,
    "consent": "2020-03-18T13:25:57+01:00",
    "oppdragsaddresse": "Skauveien 12",
    "oppdragsnummer": 11200015,
    "agent": "Anders Ødenes",
    "office": "Drammen"
  },
  {
    "id": 401263,
    "type": "searchagent",
    "name": "Ida Andersen",
    "email": "ida_andersen15@hotmail.com",
    "lat": 59.744911193848,
    "lon": 10.20161819458,
    "radius": 1,
    "estatetype": "leilighet",
    "price_min": 3300000,
    "price_max": 4500000,
    "area_min": 60,
    "area_max": 90,
    "consent": "2020-03-17T18:11:00+01:00",
    "oppdragsaddresse": "Øvre Torggate 12",
    "oppdragsnummer": 11190045,
    "agent": "Anders Ødenes",
    "office": "Drammen"
  },
  {
    "id": 398640,
    "type": "searchagent",
    "name": "Geir Karlsen",
    "email": "geir.rasmussen.karlsen@gmail.com",
    "lat": 58.459518432617,
    "lon": 8.8247785568237,
    "radius": 1,
    "estatetype": "enebolig",
    "price_min": 1700000,
    "price_max": 2400000,
    "area_min": 150,
    "area_max": 220,
    "consent": "2020-02-24T07:54:18+01:00",
    "oppdragsaddresse": "Rådyrveien 4",
    "oppdragsnummer": 40200016,
    "agent": "Linn Coucheron Berli",
    "office": "Arendal"
  },
  {
    "id": 396615,
    "type": "searchagent",
    "name": "Sondre Nicander Nilsen",
    "email": "sondre.nicander@gmail.com",
    "lat": 59.7554462,
    "lon": 10.2090198,
    "radius": 1,
    "estatetype": "enebolig",
    "price_min": 17000000,
    "price_max": 23000000,
    "area_min": 320,
    "area_max": 440,
    "consent": "2020-02-07T12:12:19+01:00",
    "oppdragsaddresse": "Strøtvetveien 18A",
    "oppdragsnummer": 11190126,
    "agent": "Nina Widerøe",
    "office": "Drammen"
  },
  {
    "id": 400224,
    "type": "searchagent",
    "name": "Necla Bas",
    "email": "necla_bas@hotmail.no",
    "lat": 59.733165740967,
    "lon": 10.18678855896,
    "radius": 1,
    "estatetype": "tomannsbolig",
    "price_min": 3600000,
    "price_max": 4900000,
    "area_min": 150,
    "area_max": 210,
    "consent": "2020-03-08T13:30:18+01:00",
    "oppdragsaddresse": "Blektjernveien 35",
    "oppdragsnummer": 11190148,
    "agent": "Simen Eknes Slotsvig",
    "office": "Drammen"
  },
  {
    "id": 400153,
    "type": "searchagent",
    "name": "Zeynep Bad",
    "email": "Gurbet_84@hotmail.com",
    "lat": 59.746616363525,
    "lon": 10.218821525574,
    "radius": 1,
    "estatetype": "enebolig",
    "price_min": 7900000,
    "price_max": 10400000,
    "area_min": 160,
    "area_max": 230,
    "consent": "2020-03-07T11:29:47+01:00",
    "oppdragsaddresse": "Løkkebergveien 17",
    "oppdragsnummer": 11200023,
    "agent": "Nina Widerøe",
    "office": "Drammen"
  },
  {
    "id": 306280,
    "type": "searchagent",
    "name": "Igne Cukuraite",
    "email": "kodere@gmail.com",
    "lat": 59.765285491943,
    "lon": 10.069051742554,
    "radius": 1,
    "estatetype": "enebolig",
    "price_min": 2900000,
    "price_max": 3900000,
    "area_min": 150,
    "area_max": 220,
    "consent": "2018-09-07T21:17:59+02:00",
    "oppdragsaddresse": "Hallingstadveien 20",
    "oppdragsnummer": 11180075,
    "agent": "Anders Ødenes",
    "office": "Drammen"
  },
  {
    "id": 399872,
    "type": "searchagent",
    "name": "Ole henrik Jordanger",
    "email": "Ole.henrik@jordanger.no",
    "lat": 59.725456237793,
    "lon": 10.154252052307,
    "radius": 1,
    "estatetype": "enebolig",
    "price_min": 4600000,
    "price_max": 6000000,
    "area_min": 160,
    "area_max": 220,
    "consent": "2020-03-04T18:56:20+01:00",
    "oppdragsaddresse": "Almedalsveien 10A",
    "oppdragsnummer": 11190129,
    "agent": "Simen Eknes Slotsvig",
    "office": "Drammen"
  },
  {
    "id": 399773,
    "type": "searchagent",
    "name": "ingunn elvekrok",
    "email": "Ingunn.elvekrok@me.com",
    "lat": 59.753032684326,
    "lon": 10.166348457336,
    "radius": 1,
    "estatetype": "tomannsbolig",
    "price_min": 4200000,
    "price_max": 5600000,
    "area_min": 110,
    "area_max": 160,
    "consent": "2020-03-03T22:02:26+01:00",
    "oppdragsaddresse": "Holstetajet 10C",
    "oppdragsnummer": 11200013,
    "agent": "Anders Ødenes",
    "office": "Drammen"
  },
  {
    "id": 399718,
    "type": "searchagent",
    "name": "Wenche May Vaagsnes",
    "email": "wenchemay@gmail.com",
    "lat": 58.498832702637,
    "lon": 8.8623027801514,
    "radius": 1,
    "estatetype": "enebolig",
    "price_min": 1300000,
    "price_max": 1900000,
    "area_min": 170,
    "area_max": 240,
    "consent": "2020-03-03T14:02:43+01:00",
    "oppdragsaddresse": "Trygve Næss vei 6",
    "oppdragsnummer": 40190008,
    "agent": "Phong Thanh Tran",
    "office": "Arendal"
  },
  {
    "id": 399485,
    "type": "searchagent",
    "name": "Andreas  Graatrud",
    "email": "graatrude@gmail.com",
    "lat": 58.498832702637,
    "lon": 8.8623027801514,
    "radius": 1,
    "estatetype": "enebolig",
    "price_min": 1300000,
    "price_max": 1900000,
    "area_min": 170,
    "area_max": 240,
    "consent": "2020-03-01T22:35:57+01:00",
    "oppdragsaddresse": "Trygve Næss vei 6",
    "oppdragsnummer": 40190008,
    "agent": "Phong Thanh Tran",
    "office": "Arendal"
  },
  {
    "id": 399399,
    "type": "searchagent",
    "name": "Petter Johannessen",
    "email": "Pejohannessen@gmail.com",
    "lat": 58.443878173828,
    "lon": 8.712550163269,
    "radius": 1,
    "estatetype": "enebolig",
    "price_min": 3100000,
    "price_max": 4200000,
    "area_min": 110,
    "area_max": 160,
    "consent": "2020-02-29T11:38:22+01:00",
    "oppdragsaddresse": "Nidelvåsen - Prosjekterte eneboliger",
    "oppdragsnummer": 40189004,
    "agent": "Thomas Noddeland",
    "office": "Arendal"
  },
  {
    "id": 397588,
    "type": "searchagent",
    "name": "Bjørn Arvid Fløisvik",
    "email": "bjornarvid55@gmail.com",
    "lat": 58.529247283936,
    "lon": 8.8957424163818,
    "radius": 1,
    "estatetype": "leilighet",
    "price_min": 1600000,
    "price_max": 2300000,
    "area_min": 60,
    "area_max": 100,
    "consent": "2020-02-15T04:33:18+01:00",
    "oppdragsaddresse": "Strengereidplatået 49 B",
    "oppdragsnummer": 40160129,
    "agent": "Glenn J. Olsen",
    "office": "Arendal"
  },
  {
    "id": 399122,
    "type": "searchagent",
    "name": "Bjørn Arvid Fløisvik",
    "email": "bjornarvid55@gmail.com",
    "lat": 58.529247283936,
    "lon": 8.8957424163818,
    "radius": 1,
    "estatetype": "leilighet",
    "price_min": 1600000,
    "price_max": 2300000,
    "area_min": 60,
    "area_max": 100,
    "consent": "2020-02-26T22:04:41+01:00",
    "oppdragsaddresse": "Strengereidplatået 49 B",
    "oppdragsnummer": 40160129,
    "agent": "Glenn J. Olsen",
    "office": "Arendal"
  },
  {
    "id": 90150,
    "type": "searchagent",
    "name": "Per Bellsund",
    "email": "perbell@gmail.com",
    "lat": 60.448760986328,
    "lon": 8.7233734130859,
    "radius": 1,
    "estatetype": "hytte",
    "price_min": 500000,
    "price_max": 800000,
    "area_min": 40,
    "area_max": 70,
    "consent": "2018-11-29T21:22:59+01:00",
    "oppdragsaddresse": "Pålsbuvegen 35",
    "oppdragsnummer": 11180114,
    "agent": "Emilie Fredriksen",
    "office": "Drammen"
  },
  {
    "id": 90210,
    "type": "searchagent",
    "name": "Per Chr Bellsund",
    "email": "perbell@gmail.com",
    "lat": 60.448760986328,
    "lon": 8.7233734130859,
    "radius": 1,
    "estatetype": "hytte",
    "price_min": 500000,
    "price_max": 800000,
    "area_min": 40,
    "area_max": 70,
    "consent": "2018-12-03T13:45:31+01:00",
    "oppdragsaddresse": "Pålsbuvegen 35",
    "oppdragsnummer": 11180114,
    "agent": "Emilie Fredriksen",
    "office": "Drammen"
  },
  {
    "id": 347034,
    "type": "searchagent",
    "name": "Inga Valinskiene",
    "email": "ivalinskiene@gmail.com",
    "lat": 58.535820007324,
    "lon": 8.4855346679688,
    "radius": 1,
    "estatetype": "enebolig",
    "price_min": 1400000,
    "price_max": 2000000,
    "area_min": 110,
    "area_max": 160,
    "consent": "2019-05-26T19:55:14+02:00",
    "oppdragsaddresse": "Øynaheiveien 45",
    "oppdragsnummer": 40190053,
    "agent": "Jan Terje Øygarden",
    "office": "Arendal"
  },
  {
    "id": 398625,
    "type": "searchagent",
    "name": "Selja Bergitte vatndal",
    "email": "seljavatndal@gmail.com",
    "lat": 59.753032684326,
    "lon": 10.166348457336,
    "radius": 1,
    "estatetype": "tomannsbolig",
    "price_min": 4200000,
    "price_max": 5600000,
    "area_min": 110,
    "area_max": 160,
    "consent": "2020-02-23T21:31:27+01:00",
    "oppdragsaddresse": "Holstetajet 10C",
    "oppdragsnummer": 11200013,
    "agent": "Anders Ødenes",
    "office": "Drammen"
  },
  {
    "id": 398575,
    "type": "searchagent",
    "name": "Marion Kristensen",
    "email": "marion.kr@live.no",
    "lat": 58.645393371582,
    "lon": 8.1909923553467,
    "radius": 1,
    "estatetype": "hytte",
    "price_min": 900000,
    "price_max": 1300000,
    "area_min": 70,
    "area_max": 110,
    "consent": "2020-02-23T12:13:43+01:00",
    "oppdragsaddresse": "Risdalsveien 169",
    "oppdragsnummer": 40190209,
    "agent": "Linn Coucheron Berli",
    "office": "Arendal"
  },
  {
    "id": 82763,
    "type": "searchagent",
    "name": "Frederick  Horntvedt",
    "email": "f.horntvedt@nordvikbolig.no",
    "lat": 59.746250152588,
    "lon": 10.218642234802,
    "radius": 1,
    "estatetype": "enebolig",
    "price_min": 14000000,
    "price_max": 14000000,
    "area_min": 230,
    "area_max": 320,
    "consent": "2019-02-05T15:27:06+01:00",
    "oppdragsaddresse": "Løkkebergveien 18",
    "oppdragsnummer": 11190004,
    "agent": "Nina Widerøe",
    "office": "Drammen"
  },
  {
    "id": 398224,
    "type": "searchagent",
    "name": "Cecilie Jørgensen",
    "email": "cecilie_lensberg@hotmail.com",
    "lat": 59.968475341797,
    "lon": 9.9957237243652,
    "radius": 1,
    "estatetype": "leilighet",
    "price_min": 1100000,
    "price_max": 1600000,
    "area_min": 40,
    "area_max": 80,
    "consent": "2020-02-19T21:25:38+01:00",
    "oppdragsaddresse": "Mårveien 1 D",
    "oppdragsnummer": 11200002,
    "agent": "Anders Ødenes",
    "office": "Drammen"
  },
  {
    "id": 319731,
    "type": "searchagent",
    "name": "Ingunn.elvekrok@usn.no",
    "email": "Ingunn.elvekrok@usn.no",
    "lat": 59.745315551758,
    "lon": 10.216138839722,
    "radius": 1,
    "estatetype": "leilighet",
    "price_min": 3900000,
    "price_max": 5200000,
    "area_min": 90,
    "area_max": 140,
    "consent": "2018-06-25T17:57:06+02:00",
    "oppdragsaddresse": "Syrinveien 3",
    "oppdragsnummer": 11180086,
    "agent": "Nina Widerøe",
    "office": "Drammen"
  },
  {
    "id": 375733,
    "type": "searchagent",
    "name": "ingunn elvekrok",
    "email": "ingunn.elvekrok@usn.no",
    "lat": 59.746559143066,
    "lon": 10.211754798889,
    "radius": 1,
    "estatetype": "enebolig",
    "price_min": 4600000,
    "price_max": 6000000,
    "area_min": 80,
    "area_max": 130,
    "consent": "2019-09-23T00:23:12+02:00",
    "oppdragsaddresse": "Bergstien 64",
    "oppdragsnummer": 11190114,
    "agent": "Anders Ødenes",
    "office": "Drammen"
  },
  {
    "id": 398038,
    "type": "searchagent",
    "name": "ingunn elvekrok",
    "email": "Ingunn.elvekrok@usn.no",
    "lat": 59.749614715576,
    "lon": 10.224791526794,
    "radius": 1,
    "estatetype": "tomannsbolig",
    "price_min": 4500000,
    "price_max": 6000000,
    "area_min": 110,
    "area_max": 160,
    "consent": "2020-02-18T22:08:44+01:00",
    "oppdragsaddresse": "Lammers gate 53",
    "oppdragsnummer": 11190077,
    "agent": "Anders Ødenes",
    "office": "Drammen"
  },
  {
    "id": 398041,
    "type": "searchagent",
    "name": "ingunn elvekrok",
    "email": "Ingunn.elvekrok@usn.no",
    "lat": 59.749614715576,
    "lon": 10.224791526794,
    "radius": 1,
    "estatetype": "tomannsbolig",
    "price_min": 4500000,
    "price_max": 6000000,
    "area_min": 110,
    "area_max": 160,
    "consent": "2020-02-18T22:29:23+01:00",
    "oppdragsaddresse": "Lammers gate 53",
    "oppdragsnummer": 11190077,
    "agent": "Anders Ødenes",
    "office": "Drammen"
  },
  {
    "id": 398003,
    "type": "searchagent",
    "name": "Arne Jensen",
    "email": "arnejen2@online.no",
    "lat": 58.718872070312,
    "lon": 8.7921724319458,
    "radius": 1,
    "estatetype": "enebolig",
    "price_min": 700000,
    "price_max": 1100000,
    "area_min": 110,
    "area_max": 160,
    "consent": "2020-02-18T17:13:16+01:00",
    "oppdragsaddresse": "Espelandsveien 309",
    "oppdragsnummer": 40190163,
    "agent": "Thomas Noddeland",
    "office": "Arendal"
  },
  {
    "id": 321839,
    "type": "searchagent",
    "name": "Arne Jensen",
    "email": "arnejen2@online.no",
    "lat": 60.779249,
    "lon": null,
    "radius": null,
    "estatetype": "enebolig",
    "price_min": 0,
    "price_max": 0,
    "area_min": 0,
    "area_max": 0,
    "consent": "2019-03-07T11:26:46+01:00"
  },
  {
    "id": 397999,
    "type": "searchagent",
    "name": "Hanne Terjesen",
    "email": "h.terjesen@gmail.com",
    "lat": 58.718872070312,
    "lon": 8.7921724319458,
    "radius": 1,
    "estatetype": "enebolig",
    "price_min": 700000,
    "price_max": 1100000,
    "area_min": 110,
    "area_max": 160,
    "consent": "2020-02-18T17:03:23+01:00",
    "oppdragsaddresse": "Espelandsveien 309",
    "oppdragsnummer": 40190163,
    "agent": "Thomas Noddeland",
    "office": "Arendal"
  },
  {
    "id": 330637,
    "type": "searchagent",
    "name": "Simen Berger",
    "email": "simen1@live.com",
    "lat": 58.477745056152,
    "lon": 8.8227043151855,
    "radius": 1,
    "estatetype": "enebolig",
    "price_min": 800000,
    "price_max": 1300000,
    "area_min": 110,
    "area_max": 160,
    "consent": "2019-04-01T15:10:36+02:00",
    "oppdragsaddresse": "Dyvigodden 7",
    "oppdragsnummer": 40190034,
    "agent": "Thomas Noddeland",
    "office": "Arendal"
  },
  {
    "id": 324627,
    "type": "searchagent",
    "name": "Simen Berger",
    "email": "simen1@live.com",
    "lat": 58.477745056152,
    "lon": 8.8227043151855,
    "radius": 1,
    "estatetype": "enebolig",
    "price_min": 800000,
    "price_max": 1300000,
    "area_min": 110,
    "area_max": 160,
    "consent": "2019-03-10T14:05:02+01:00",
    "oppdragsaddresse": "Dyvigodden 7",
    "oppdragsnummer": 40190034,
    "agent": "Thomas Noddeland",
    "office": "Arendal"
  },
  {
    "id": 397368,
    "type": "searchagent",
    "name": "Elisabeth Hartmann",
    "email": "elis-hart@hotmail.com",
    "lat": 59.754028320312,
    "lon": 10.149231910706,
    "radius": 1,
    "estatetype": "rekkehus",
    "price_min": 3200000,
    "price_max": 4300000,
    "area_min": 120,
    "area_max": 170,
    "consent": "2020-02-13T08:44:23+01:00",
    "oppdragsaddresse": "Doktor Narveruds vei 48B",
    "oppdragsnummer": 11190149,
    "agent": "Simen Eknes Slotsvig",
    "office": "Drammen"
  },
  {
    "id": 396697,
    "type": "searchagent",
    "name": "Jan-Vidar Tandberg Bakke",
    "email": "jvtb@icloud.com",
    "lat": 59.827465057373,
    "lon": 10.287468910217,
    "radius": 1,
    "estatetype": "enebolig",
    "price_min": 6400000,
    "price_max": 8400000,
    "area_min": 150,
    "area_max": 220,
    "consent": "2020-02-07T23:47:09+01:00",
    "oppdragsaddresse": "Haugane 45",
    "oppdragsnummer": 11200006,
    "agent": "Emilie Fredriksen",
    "office": "Drammen"
  },
  {
    "id": 314296,
    "type": "searchagent",
    "name": "Erik Holtmoen",
    "email": "holtmoen@online.no",
    "lat": 59.731422424316,
    "lon": 10.302140235901,
    "radius": 1,
    "estatetype": "leilighet",
    "price_min": 6200000,
    "price_max": 14000000,
    "area_min": 80,
    "area_max": 180,
    "consent": "2018-10-10T19:04:34+02:00",
    "oppdragsaddresse": "Strandhusene Syd II - Engersand Havn",
    "oppdragsnummer": 11189002,
    "agent": "Øystein Liverud",
    "office": "Drammen"
  },
  {
    "id": 355909,
    "type": "searchagent",
    "name": "Laila Egeland",
    "email": "lailaeg@online.no",
    "lat": 58.556951,
    "lon": 8.7088673,
    "radius": 0.5,
    "estatetype": "enebolig",
    "price_min": 2200000,
    "price_max": 3000000,
    "area_min": 120,
    "area_max": 180,
    "consent": "2019-06-24T17:50:37+02:00"
  },
  {
    "id": 396680,
    "type": "searchagent",
    "name": "Laila Egeland",
    "email": "lailaeg@online.no",
    "lat": 58.501377105713,
    "lon": 8.6517505645752,
    "radius": 1,
    "estatetype": "rekkehus",
    "price_min": 1000000,
    "price_max": 1600000,
    "area_min": 70,
    "area_max": 110,
    "consent": "2020-02-07T18:41:45+01:00",
    "oppdragsaddresse": "Duevegen 1 C",
    "oppdragsnummer": 40190211,
    "agent": "Phong Thanh Tran",
    "office": "Arendal"
  },
  {
    "id": 396644,
    "type": "searchagent",
    "name": "Elisabeth Bratterud",
    "email": "elisabeth.bratterud@hotmail.com",
    "lat": 59.748722076416,
    "lon": 10.219305038452,
    "radius": 1,
    "estatetype": "enebolig",
    "price_min": 17000000,
    "price_max": 23000000,
    "area_min": 320,
    "area_max": 440,
    "consent": "2020-02-07T13:56:27+01:00",
    "oppdragsaddresse": "Strøtvetveien 18A",
    "oppdragsnummer": 11190126,
    "agent": "Nina Widerøe",
    "office": "Drammen"
  },
  {
    "id": 396646,
    "type": "searchagent",
    "name": "Elisabeth Bratterud",
    "email": "elisabeth.bratterud@hotmail.com",
    "lat": 59.748722076416,
    "lon": 10.219305038452,
    "radius": 1,
    "estatetype": "enebolig",
    "price_min": 17000000,
    "price_max": 23000000,
    "area_min": 320,
    "area_max": 440,
    "consent": "2020-02-07T13:57:10+01:00",
    "oppdragsaddresse": "Strøtvetveien 18A",
    "oppdragsnummer": 11190126,
    "agent": "Nina Widerøe",
    "office": "Drammen"
  },
  {
    "id": 90909,
    "type": "searchagent",
    "name": "Christin Bratland",
    "email": "christinteige@hotmail.com",
    "lat": 59.71605682373,
    "lon": 10.144359588623,
    "radius": 1,
    "estatetype": "enebolig",
    "price_min": 5300000,
    "price_max": 7000000,
    "area_min": 180,
    "area_max": 250,
    "consent": "2019-01-23T20:38:50+01:00",
    "oppdragsaddresse": "Mikkelsrudveien 13",
    "oppdragsnummer": 11180167,
    "agent": "Anders Ødenes",
    "office": "Drammen"
  },
  {
    "id": 395891,
    "type": "searchagent",
    "name": "Justas Stripinis",
    "email": "justas.stripinis@gmail.com",
    "lat": 58.503154754639,
    "lon": 8.8559370040894,
    "radius": 1,
    "estatetype": "enebolig",
    "price_min": 1200000,
    "price_max": 1800000,
    "area_min": 180,
    "area_max": 250,
    "consent": "2020-02-02T00:05:26+01:00",
    "oppdragsaddresse": "Kystveien 828",
    "oppdragsnummer": 40180073,
    "agent": "Phong Thanh Tran",
    "office": "Arendal"
  },
  {
    "id": 395602,
    "type": "searchagent",
    "name": "Tore Nyhus",
    "email": "torenyhu@online.no",
    "lat": 59.968475341797,
    "lon": 9.9957237243652,
    "radius": 1,
    "estatetype": "leilighet",
    "price_min": 1100000,
    "price_max": 1600000,
    "area_min": 40,
    "area_max": 80,
    "consent": "2020-01-30T16:25:55+01:00",
    "oppdragsaddresse": "Mårveien 1 D",
    "oppdragsnummer": 11200002,
    "agent": "Anders Ødenes",
    "office": "Drammen"
  },
  {
    "id": 90252,
    "type": "searchagent",
    "name": "hilde amalie ekeberg",
    "email": "limacher@hotmail.no",
    "lat": 58.467472076416,
    "lon": 8.8236885070801,
    "radius": 1,
    "estatetype": "leilighet",
    "price_min": 1900000,
    "price_max": 2900000,
    "area_min": 0,
    "area_max": 10,
    "consent": "2018-12-06T15:35:54+01:00",
    "oppdragsaddresse": "Broneset - Byggetrinn 4",
    "oppdragsnummer": 40159021,
    "agent": "Thomas Noddeland",
    "office": "Arendal"
  },
  {
    "id": 90250,
    "type": "searchagent",
    "name": "Hilde Amalie  Ekeberg",
    "email": "Limacher@hotmail.no",
    "lat": 58.455791473389,
    "lon": 8.790228843689,
    "radius": 1,
    "estatetype": "enebolig",
    "price_min": 1300000,
    "price_max": 1900000,
    "area_min": 90,
    "area_max": 130,
    "consent": "2018-12-06T15:00:59+01:00",
    "oppdragsaddresse": "Skilsøveien 355",
    "oppdragsnummer": 40180198,
    "agent": "Phong Thanh Tran",
    "office": "Arendal"
  },
  {
    "id": 344234,
    "type": "searchagent",
    "name": "Hilde amalie ekeberg",
    "email": "limacher@hotmail.no",
    "lat": 58.476982116699,
    "lon": 8.7531232833862,
    "radius": 1,
    "estatetype": "enebolig",
    "price_min": 1600000,
    "price_max": 2200000,
    "area_min": 90,
    "area_max": 140,
    "consent": "2019-05-19T14:36:20+02:00",
    "oppdragsaddresse": "Lokes vei 36",
    "oppdragsnummer": 40190062,
    "agent": "Thomas Noddeland",
    "office": "Arendal"
  },
  {
    "id": 392947,
    "type": "searchagent",
    "name": "Hilde Amalie  Ekeberg",
    "email": "Limacher@hotmail.no",
    "lat": 58.481304168701,
    "lon": 8.7745180130005,
    "radius": 1,
    "estatetype": "rekkehus",
    "price_min": 1200000,
    "price_max": 1800000,
    "area_min": 40,
    "area_max": 70,
    "consent": "2020-01-20T21:04:15+01:00",
    "oppdragsaddresse": "Mauråsveien 32",
    "oppdragsnummer": 40190177,
    "agent": "Thomas Noddeland",
    "office": "Arendal"
  },
  {
    "id": 392099,
    "type": "searchagent",
    "name": "Hilde Amalie  Ekeberg",
    "email": "Limacher@hotmail.no",
    "lat": 58.480995178223,
    "lon": 8.7768077850342,
    "radius": 1,
    "estatetype": "rekkehus",
    "price_min": 1400000,
    "price_max": 2000000,
    "area_min": 120,
    "area_max": 170,
    "consent": "2020-01-18T23:28:03+01:00",
    "oppdragsaddresse": "Mauråsveien 84",
    "oppdragsnummer": 40190179,
    "agent": "Linn Coucheron Berli",
    "office": "Arendal"
  },
  {
    "id": 392101,
    "type": "searchagent",
    "name": "Hilde Amalie  Ekeberg",
    "email": "Limacher@hotmail.no",
    "lat": 58.476982116699,
    "lon": 8.7531232833862,
    "radius": 1,
    "estatetype": "enebolig",
    "price_min": 1600000,
    "price_max": 2200000,
    "area_min": 90,
    "area_max": 140,
    "consent": "2020-01-18T23:39:03+01:00",
    "oppdragsaddresse": "Lokes vei 36",
    "oppdragsnummer": 40190062,
    "agent": "Thomas Noddeland",
    "office": "Arendal"
  },
  {
    "id": 391880,
    "type": "searchagent",
    "name": "Hilde Amalie  Ekeberg",
    "email": "Limacher@hotmail.no",
    "lat": 58.461933135986,
    "lon": 8.7612333297729,
    "radius": 1,
    "estatetype": "enebolig",
    "price_min": 1200000,
    "price_max": 1800000,
    "area_min": 70,
    "area_max": 110,
    "consent": "2020-01-16T15:50:29+01:00",
    "oppdragsaddresse": "Klevgaten 9",
    "oppdragsnummer": 40190133,
    "agent": "Phong Thanh Tran",
    "office": "Arendal"
  },
  {
    "id": 391917,
    "type": "searchagent",
    "name": "Hilde Amalie  Ekeberg",
    "email": "Limacher@hotmail.no",
    "lat": 58.461933135986,
    "lon": 8.7612333297729,
    "radius": 1,
    "estatetype": "enebolig",
    "price_min": 1200000,
    "price_max": 1800000,
    "area_min": 70,
    "area_max": 110,
    "consent": "2020-01-16T22:04:17+01:00",
    "oppdragsaddresse": "Klevgaten 9",
    "oppdragsnummer": 40190133,
    "agent": "Phong Thanh Tran",
    "office": "Arendal"
  },
  {
    "id": 391921,
    "type": "searchagent",
    "name": "Hilde  Ekeberg",
    "email": "Limacher@hotmail.no",
    "lat": 58.470096588135,
    "lon": 8.7631673812866,
    "radius": 1,
    "estatetype": "tomannsbolig",
    "price_min": 1200000,
    "price_max": 1700000,
    "area_min": 110,
    "area_max": 170,
    "consent": "2020-01-16T22:15:30+01:00",
    "oppdragsaddresse": "Bjørnsplass 18 B",
    "oppdragsnummer": 40190022,
    "agent": "Phong Thanh Tran",
    "office": "Arendal"
  },
  {
    "id": 392455,
    "type": "searchagent",
    "name": "Hilde Amalie Ekeberg",
    "email": "limacher@hotmail.no",
    "lat": 58.478260040283,
    "lon": 8.7763471603394,
    "radius": 1,
    "estatetype": "enebolig",
    "price_min": 1900000,
    "price_max": 2600000,
    "area_min": 90,
    "area_max": 130,
    "consent": "2020-01-20T13:56:32+01:00",
    "oppdragsaddresse": "Krokstien 15",
    "oppdragsnummer": 40190180,
    "agent": "Thomas Noddeland",
    "office": "Arendal"
  },
  {
    "id": 395448,
    "type": "searchagent",
    "name": "Hilde Amalie  Ekeberg",
    "email": "Limacher@hotmail.no",
    "lat": 58.469120025635,
    "lon": 8.7686185836792,
    "radius": 1,
    "estatetype": "leilighet",
    "price_min": 2200000,
    "price_max": 3000000,
    "area_min": 120,
    "area_max": 170,
    "consent": "2020-01-29T21:46:45+01:00",
    "oppdragsaddresse": "Barbugårdsveien 49 F",
    "oppdragsnummer": 40190250,
    "agent": "Phong Thanh Tran",
    "office": "Arendal"
  },
  {
    "id": 395433,
    "type": "searchagent",
    "name": "Marte Strand",
    "email": "martestr@gmail.com",
    "lat": 58.484069824219,
    "lon": 8.8966293334961,
    "radius": 1,
    "estatetype": "enebolig",
    "price_min": 2300000,
    "price_max": 3100000,
    "area_min": 130,
    "area_max": 190,
    "consent": "2020-01-29T17:37:46+01:00",
    "oppdragsaddresse": "Lindkloppveien 3",
    "oppdragsnummer": 40190059,
    "agent": "Jan Terje Øygarden",
    "office": "Arendal"
  },
  {
    "id": 395270,
    "type": "searchagent",
    "name": "Marte Strand",
    "email": "martestrand90@hotmail.com",
    "lat": 58.470512390137,
    "lon": 8.7714996337891,
    "radius": 1,
    "estatetype": "enebolig",
    "price_min": 2100000,
    "price_max": 2900000,
    "area_min": 140,
    "area_max": 200,
    "consent": "2020-01-29T08:00:08+01:00",
    "oppdragsaddresse": "Rømmekollen 12",
    "oppdragsnummer": 40180218,
    "agent": "Glenn J. Olsen",
    "office": "Arendal"
  },
  {
    "id": 394752,
    "type": "searchagent",
    "name": "Marina Kaykhanidi",
    "email": "marina.kaykhanidi@gmail.com",
    "lat": 59.747943878174,
    "lon": 10.221661567688,
    "radius": 1,
    "estatetype": "enebolig",
    "price_min": 8200000,
    "price_max": 10700000,
    "area_min": 240,
    "area_max": 320,
    "consent": "2020-01-27T09:12:38+01:00",
    "oppdragsaddresse": "Tord Pedersens gate 16",
    "oppdragsnummer": 11200003,
    "agent": "Nina Widerøe",
    "office": "Drammen"
  },
  {
    "id": 394713,
    "type": "searchagent",
    "name": "Ellen Westergren",
    "email": "Ellewe2000@yahoo.no",
    "lat": 58.498832702637,
    "lon": 8.8623027801514,
    "radius": 1,
    "estatetype": "enebolig",
    "price_min": 1300000,
    "price_max": 1900000,
    "area_min": 170,
    "area_max": 240,
    "consent": "2020-01-26T17:09:50+01:00",
    "oppdragsaddresse": "Trygve Næss vei 6",
    "oppdragsnummer": 40190008,
    "agent": "Phong Thanh Tran",
    "office": "Arendal"
  },
  {
    "id": 83615,
    "type": "searchagent",
    "name": "Cecilie Brown",
    "email": "Cecilie.brown@outlook.com",
    "lat": 59.746250152588,
    "lon": 10.218642234802,
    "radius": 1,
    "estatetype": "enebolig",
    "price_min": 14000000,
    "price_max": 14000000,
    "area_min": 230,
    "area_max": 320,
    "consent": "2019-02-07T13:35:36+01:00",
    "oppdragsaddresse": "Løkkebergveien 18",
    "oppdragsnummer": 11190004,
    "agent": "Nina Widerøe",
    "office": "Drammen"
  },
  {
    "id": 329953,
    "type": "searchagent",
    "name": "Cecilie Brown",
    "email": "Cecilie.brown@outlook.com",
    "lat": 59.747634887695,
    "lon": 10.219567298889,
    "radius": 1,
    "estatetype": "enebolig",
    "price_min": 7100000,
    "price_max": 9300000,
    "area_min": 190,
    "area_max": 270,
    "consent": "2019-03-29T23:13:51+01:00",
    "oppdragsaddresse": "Tord Pedersens gate 23",
    "oppdragsnummer": 11190031,
    "agent": "Nina Widerøe",
    "office": "Drammen"
  },
  {
    "id": 356866,
    "type": "searchagent",
    "name": "cecilie brown",
    "email": "cecilie.brown@outlook.com",
    "lat": 59.749214172363,
    "lon": 10.202264785767,
    "radius": 1,
    "estatetype": "leilighet",
    "price_min": 2800000,
    "price_max": 3800000,
    "area_min": 60,
    "area_max": 100,
    "consent": "2019-06-27T18:01:10+02:00",
    "oppdragsaddresse": "Bergstien 31c, seksjon 2",
    "oppdragsnummer": 11190072,
    "agent": "Nina Widerøe",
    "office": "Drammen"
  },
  {
    "id": 394617,
    "type": "searchagent",
    "name": "Cecilie Brown",
    "email": "Cecilie.brown@outlook.com",
    "lat": 59.747943878174,
    "lon": 10.221661567688,
    "radius": 1,
    "estatetype": "enebolig",
    "price_min": 8200000,
    "price_max": 10700000,
    "area_min": 240,
    "area_max": 320,
    "consent": "2020-01-25T02:10:59+01:00",
    "oppdragsaddresse": "Tord Pedersens gate 16",
    "oppdragsnummer": 11200003,
    "agent": "Nina Widerøe",
    "office": "Drammen"
  },
  {
    "id": 394612,
    "type": "searchagent",
    "name": "Sasa  Francuski",
    "email": "Sasafrancuski07@gmail.com",
    "lat": 59.968475341797,
    "lon": 9.9957237243652,
    "radius": 1,
    "estatetype": "leilighet",
    "price_min": 1100000,
    "price_max": 1600000,
    "area_min": 40,
    "area_max": 80,
    "consent": "2020-01-24T23:56:02+01:00",
    "oppdragsaddresse": "Mårveien 1 D",
    "oppdragsnummer": 11200002,
    "agent": "Anders Ødenes",
    "office": "Drammen"
  },
  {
    "id": 394360,
    "type": "searchagent",
    "name": "Helge Andre Martinsen",
    "email": "helge.andre.martinsen@gmail.com",
    "lat": 59.747943878174,
    "lon": 10.221661567688,
    "radius": 1,
    "estatetype": "enebolig",
    "price_min": 8200000,
    "price_max": 10700000,
    "area_min": 240,
    "area_max": 320,
    "consent": "2020-01-23T16:28:07+01:00",
    "oppdragsaddresse": "Tord Pedersens gate 16",
    "oppdragsnummer": 11200003,
    "agent": "Nina Widerøe",
    "office": "Drammen"
  },
  {
    "id": 394248,
    "type": "searchagent",
    "name": "Anne Cathrine Thingelstad",
    "email": "acthingelstad@gmail.com",
    "lat": 59.736653098941,
    "lon": 10.19115582453,
    "radius": 0.9,
    "estatetype": "leilighet,rekkehus",
    "price_min": 4000000,
    "price_max": 5000000,
    "area_min": 80,
    "area_max": 140,
    "consent": "2020-01-22T23:39:55+01:00"
  },
  {
    "id": 393888,
    "type": "searchagent",
    "name": "Ole Mortensen",
    "email": "olea100@yahoo.no",
    "lat": "",
    "lon": null,
    "radius": null,
    "estatetype": "enebolig,leilighet",
    "price_min": 0,
    "price_max": 0,
    "area_min": 0,
    "area_max": 0,
    "consent": "2020-01-22T10:10:17+01:00"
  },
  {
    "id": 393887,
    "type": "searchagent",
    "name": "Manuel Jensen",
    "email": "tlop05@hotmail.com",
    "lat": "",
    "lon": null,
    "radius": null,
    "estatetype": "enebolig",
    "price_min": 0,
    "price_max": 0,
    "area_min": 0,
    "area_max": 0,
    "consent": "2020-01-22T09:55:28+01:00"
  },
  {
    "id": 392074,
    "type": "searchagent",
    "name": "Vibecke Åsly",
    "email": "Vas@eniro.com",
    "lat": 59.749614715576,
    "lon": 10.224791526794,
    "radius": 1,
    "estatetype": "tomannsbolig",
    "price_min": 4400000,
    "price_max": 5900000,
    "area_min": 110,
    "area_max": 160,
    "consent": "2020-01-18T19:09:25+01:00",
    "oppdragsaddresse": "Lammers gate 53",
    "oppdragsnummer": 11190077,
    "agent": "Anders Ødenes",
    "office": "Drammen"
  },
  {
    "id": 391327,
    "type": "searchagent",
    "name": "Cairns Michael",
    "email": "Michaeljcairns1968@gmail.com",
    "lat": 58.632789611816,
    "lon": 8.2869319915771,
    "radius": 1,
    "estatetype": "enebolig",
    "price_min": 500000,
    "price_max": 800000,
    "area_min": 160,
    "area_max": 230,
    "consent": "2020-01-11T16:47:19+01:00",
    "oppdragsaddresse": "Kyrkjeveien 6",
    "oppdragsnummer": 40180180,
    "agent": "Phong Thanh Tran",
    "office": "Arendal"
  },
  {
    "id": 384511,
    "type": "searchagent",
    "name": "Gro Granås",
    "email": "gro.granas@gmail.com",
    "lat": 59.75577545166,
    "lon": 10.140526771545,
    "radius": 1,
    "estatetype": "leilighet",
    "price_min": 2000000,
    "price_max": 2800000,
    "area_min": 40,
    "area_max": 70,
    "consent": "2019-11-10T14:38:49+01:00",
    "oppdragsaddresse": "Betzy Kjelsbergs vei 107B",
    "oppdragsnummer": 11190140,
    "agent": "Simen Eknes Slotsvig",
    "office": "Drammen"
  },
  {
    "id": 391121,
    "type": "searchagent",
    "name": "Gro Granås",
    "email": "gro.granas@gmail.com",
    "lat": 59.72034072876,
    "lon": 10.13716506958,
    "radius": 1,
    "estatetype": "enebolig",
    "price_min": 5300000,
    "price_max": 6900000,
    "area_min": 240,
    "area_max": 330,
    "consent": "2020-01-09T19:55:55+01:00",
    "oppdragsaddresse": "Malmveien 2A",
    "oppdragsnummer": 11190131,
    "agent": "Simen Eknes Slotsvig",
    "office": "Drammen"
  },
  {
    "id": 390063,
    "type": "searchagent",
    "name": "Joachim Thougaard",
    "email": "joachim.thougaard@gmail.com",
    "lat": 59.743160247803,
    "lon": 10.206912994385,
    "radius": 1,
    "estatetype": "leilighet",
    "price_min": 3600000,
    "price_max": 4800000,
    "area_min": 60,
    "area_max": 100,
    "consent": "2020-01-05T16:21:29+01:00",
    "oppdragsaddresse": "Nedre Storgate 9B",
    "oppdragsnummer": 11190143,
    "agent": "Anders Ødenes",
    "office": "Drammen"
  },
  {
    "id": 390540,
    "type": "searchagent",
    "name": "Joachim Thougaard",
    "email": "joachim.thougaard@gmail.com",
    "lat": 59.743160247803,
    "lon": 10.206912994385,
    "radius": 1,
    "estatetype": "leilighet",
    "price_min": 3600000,
    "price_max": 4800000,
    "area_min": 60,
    "area_max": 100,
    "consent": "2020-01-06T19:42:27+01:00",
    "oppdragsaddresse": "Nedre Storgate 9B",
    "oppdragsnummer": 11190143,
    "agent": "Anders Ødenes",
    "office": "Drammen"
  },
  {
    "id": 389271,
    "type": "searchagent",
    "name": "Stein Düring",
    "email": "steinprivat@gmail.com",
    "lat": 59.020595550537,
    "lon": 8.5200834274292,
    "radius": 1,
    "estatetype": "landbruk",
    "price_min": 4600000,
    "price_max": 6100000,
    "area_min": 0,
    "area_max": 10,
    "consent": "2019-12-18T17:59:06+01:00",
    "oppdragsaddresse": "Haatveit",
    "oppdragsnummer": 40190185,
    "agent": "Jan Terje Øygarden",
    "office": "Arendal"
  },
  {
    "id": 389852,
    "type": "searchagent",
    "name": "Ole Solberg",
    "email": "ole.solberg95@gmail.com",
    "lat": 59.020595550537,
    "lon": 8.5200834274292,
    "radius": 1,
    "estatetype": "landbruk",
    "price_min": 4600000,
    "price_max": 6100000,
    "area_min": 0,
    "area_max": 10,
    "consent": "2020-01-01T13:51:56+01:00",
    "oppdragsaddresse": "Haatveit",
    "oppdragsnummer": 40190185,
    "agent": "Jan Terje Øygarden",
    "office": "Arendal"
  },
  {
    "id": 389791,
    "type": "searchagent",
    "name": "Jan Toe Olsen",
    "email": "jatoolse@online.no",
    "lat": 59.020595550537,
    "lon": 8.5200834274292,
    "radius": 1,
    "estatetype": "landbruk",
    "price_min": 4600000,
    "price_max": 6100000,
    "area_min": 0,
    "area_max": 10,
    "consent": "2019-12-30T09:57:25+01:00",
    "oppdragsaddresse": "Haatveit",
    "oppdragsnummer": 40190185,
    "agent": "Jan Terje Øygarden",
    "office": "Arendal"
  },
  {
    "id": 389744,
    "type": "searchagent",
    "name": "Janne Fjeldstad",
    "email": "fjeldstadjannemarie@gmail.com",
    "lat": 58.88423538208,
    "lon": 9.0238981246948,
    "radius": 1,
    "estatetype": "enebolig",
    "price_min": 2400000,
    "price_max": 3300000,
    "area_min": 190,
    "area_max": 260,
    "consent": "2019-12-28T09:25:45+01:00",
    "oppdragsaddresse": "Kamperhaug 33",
    "oppdragsnummer": 40190148,
    "agent": "Jan Terje Øygarden",
    "office": "Arendal"
  },
  {
    "id": 389747,
    "type": "searchagent",
    "name": "Janne Marie  Fjeldstad",
    "email": "fjeldstadjannemarie@gmail.com",
    "lat": 58.88423538208,
    "lon": 9.0238981246948,
    "radius": 1,
    "estatetype": "enebolig",
    "price_min": 2400000,
    "price_max": 3300000,
    "area_min": 190,
    "area_max": 260,
    "consent": "2019-12-28T09:26:18+01:00",
    "oppdragsaddresse": "Kamperhaug 33",
    "oppdragsnummer": 40190148,
    "agent": "Jan Terje Øygarden",
    "office": "Arendal"
  },
  {
    "id": 389695,
    "type": "searchagent",
    "name": "Svein Fiskebekk",
    "email": "sfiske@online.no",
    "lat": 59.020595550537,
    "lon": 8.5200834274292,
    "radius": 1,
    "estatetype": "landbruk",
    "price_min": 4600000,
    "price_max": 6100000,
    "area_min": 0,
    "area_max": 10,
    "consent": "2019-12-26T13:02:42+01:00",
    "oppdragsaddresse": "Haatveit",
    "oppdragsnummer": 40190185,
    "agent": "Jan Terje Øygarden",
    "office": "Arendal"
  },
  {
    "id": 389616,
    "type": "searchagent",
    "name": "Pål Hanssen",
    "email": "Hanssen2@yahoo.com",
    "lat": 59.020595550537,
    "lon": 8.5200834274292,
    "radius": 1,
    "estatetype": "landbruk",
    "price_min": 4600000,
    "price_max": 6100000,
    "area_min": 0,
    "area_max": 10,
    "consent": "2019-12-22T00:16:37+01:00",
    "oppdragsaddresse": "Haatveit",
    "oppdragsnummer": 40190185,
    "agent": "Jan Terje Øygarden",
    "office": "Arendal"
  },
  {
    "id": 389275,
    "type": "searchagent",
    "name": "Tor Kjetil Nilsen",
    "email": "tor@arkitektum.no",
    "lat": 59.020595550537,
    "lon": 8.5200834274292,
    "radius": 1,
    "estatetype": "landbruk",
    "price_min": 4600000,
    "price_max": 6100000,
    "area_min": 0,
    "area_max": 10,
    "consent": "2019-12-18T20:53:10+01:00",
    "oppdragsaddresse": "Haatveit",
    "oppdragsnummer": 40190185,
    "agent": "Jan Terje Øygarden",
    "office": "Arendal"
  },
  {
    "id": 389235,
    "type": "searchagent",
    "name": "Helge Hallingby",
    "email": "hhalling@online.no",
    "lat": 59.020595550537,
    "lon": 8.5200834274292,
    "radius": 1,
    "estatetype": "landbruk",
    "price_min": 4600000,
    "price_max": 6100000,
    "area_min": 0,
    "area_max": 10,
    "consent": "2019-12-18T09:17:55+01:00",
    "oppdragsaddresse": "Haatveit",
    "oppdragsnummer": 40190185,
    "agent": "Jan Terje Øygarden",
    "office": "Arendal"
  },
  {
    "id": 389216,
    "type": "searchagent",
    "name": "Viggo Aleksandersen",
    "email": "V.aleksandersen@hotmail.com",
    "lat": 59.020595550537,
    "lon": 8.5200834274292,
    "radius": 1,
    "estatetype": "landbruk",
    "price_min": 4600000,
    "price_max": 6100000,
    "area_min": 0,
    "area_max": 10,
    "consent": "2019-12-17T19:20:36+01:00",
    "oppdragsaddresse": "Haatveit",
    "oppdragsnummer": 40190185,
    "agent": "Jan Terje Øygarden",
    "office": "Arendal"
  },
  {
    "id": 389206,
    "type": "searchagent",
    "name": "Einar Mørland",
    "email": "Einar.morland@gmail.com",
    "lat": 59.020595550537,
    "lon": 8.5200834274292,
    "radius": 1,
    "estatetype": "landbruk",
    "price_min": 4600000,
    "price_max": 6100000,
    "area_min": 0,
    "area_max": 10,
    "consent": "2019-12-17T17:11:07+01:00",
    "oppdragsaddresse": "Haatveit",
    "oppdragsnummer": 40190185,
    "agent": "Jan Terje Øygarden",
    "office": "Arendal"
  },
  {
    "id": 389180,
    "type": "searchagent",
    "name": "Ragnar Kihle",
    "email": "ragnar.kihle.f@gmail.no",
    "lat": 59.020595550537,
    "lon": 8.5200834274292,
    "radius": 1,
    "estatetype": "landbruk",
    "price_min": 4600000,
    "price_max": 6100000,
    "area_min": 0,
    "area_max": 10,
    "consent": "2019-12-17T09:11:22+01:00",
    "oppdragsaddresse": "Haatveit",
    "oppdragsnummer": 40190185,
    "agent": "Jan Terje Øygarden",
    "office": "Arendal"
  },
  {
    "id": 289174,
    "type": "searchagent",
    "name": "Aslak Askland",
    "email": "aslakaskland@gmail.com",
    "lat": 58.668750762939,
    "lon": 8.8689985275269,
    "radius": 1,
    "estatetype": "landbruk",
    "price_min": 7600000,
    "price_max": 9900000,
    "area_min": 200,
    "area_max": 280,
    "consent": "2018-08-11T15:00:10+02:00",
    "oppdragsaddresse": "Midtbøveien 302 og 300",
    "oppdragsnummer": 40180079,
    "agent": "Jan Terje Øygarden",
    "office": "Arendal"
  },
  {
    "id": 389169,
    "type": "searchagent",
    "name": "Aslak Askland",
    "email": "aslakaskland@gmail.com",
    "lat": 59.020595550537,
    "lon": 8.5200834274292,
    "radius": 1,
    "estatetype": "landbruk",
    "price_min": 4600000,
    "price_max": 6100000,
    "area_min": 0,
    "area_max": 10,
    "consent": "2019-12-16T18:55:58+01:00",
    "oppdragsaddresse": "Haatveit",
    "oppdragsnummer": 40190185,
    "agent": "Jan Terje Øygarden",
    "office": "Arendal"
  },
  {
    "id": 289420,
    "type": "searchagent",
    "name": "Ellen Heggelund",
    "email": "ellen.heggelund@bi.no",
    "lat": 58.668750762939,
    "lon": 8.8689985275269,
    "radius": 1,
    "estatetype": "landbruk",
    "price_min": 7600000,
    "price_max": 9900000,
    "area_min": 200,
    "area_max": 280,
    "consent": "2018-08-11T23:43:09+02:00",
    "oppdragsaddresse": "Midtbøveien 302 og 300",
    "oppdragsnummer": 40180079,
    "agent": "Jan Terje Øygarden",
    "office": "Arendal"
  },
  {
    "id": 298200,
    "type": "searchagent",
    "name": "knut hortemo",
    "email": "knut@tremestere.no",
    "lat": 58.457138061523,
    "lon": 8.7173404693604,
    "radius": 1,
    "estatetype": "næring",
    "price_min": 4500000,
    "price_max": 5900000,
    "area_min": 0,
    "area_max": 10,
    "consent": "2018-08-22T21:50:24+02:00",
    "oppdragsaddresse": "Industritoppen 22 A",
    "oppdragsnummer": 40180046,
    "agent": "Glenn J. Olsen",
    "office": "Arendal"
  },
  {
    "id": 386897,
    "type": "searchagent",
    "name": "Magnus Thrygg",
    "email": "Magnus-92@hotmail.com",
    "lat": 59.745628356934,
    "lon": 10.203101158142,
    "radius": 1,
    "estatetype": "leilighet",
    "price_min": 3100000,
    "price_max": 4200000,
    "area_min": 60,
    "area_max": 90,
    "consent": "2019-11-25T19:05:40+01:00",
    "oppdragsaddresse": "Rådhusgata 6",
    "oppdragsnummer": 11190134,
    "agent": "Anders Ødenes",
    "office": "Drammen"
  },
  {
    "id": 385872,
    "type": "searchagent",
    "name": "Jia Dhillon",
    "email": "Jia.oak@hotmail.com",
    "lat": 59.758922576904,
    "lon": 10.049307823181,
    "radius": 1,
    "estatetype": "tomannsbolig",
    "price_min": 2500000,
    "price_max": 3500000,
    "area_min": 130,
    "area_max": 190,
    "consent": "2019-11-18T19:06:14+01:00",
    "oppdragsaddresse": "Sollia 3B",
    "oppdragsnummer": 11190141,
    "agent": "Simen Eknes Slotsvig",
    "office": "Drammen"
  },
  {
    "id": 386278,
    "type": "searchagent",
    "name": "Eirin Andersen",
    "email": "eirinpalin@hotmail.com",
    "lat": 61.186000823975,
    "lon": 8.8676996231079,
    "radius": 1,
    "estatetype": "fritidseiendom",
    "price_min": 1200000,
    "price_max": 1800000,
    "area_min": 50,
    "area_max": 90,
    "consent": "2019-11-20T17:43:15+01:00",
    "oppdragsaddresse": "Fjellsendin 81",
    "oppdragsnummer": 11180111,
    "agent": "Øystein Liverud",
    "office": "Drammen"
  },
  {
    "id": 385107,
    "type": "searchagent",
    "name": "Jon Eker",
    "email": "joneker@msn.com",
    "lat": 58.475257873535,
    "lon": 8.7975616455078,
    "radius": 1,
    "estatetype": "enebolig",
    "price_min": 4300000,
    "price_max": 5600000,
    "area_min": 210,
    "area_max": 290,
    "consent": "2019-11-13T16:16:54+01:00",
    "oppdragsaddresse": "Gamle Songevei 111",
    "oppdragsnummer": 40190066,
    "agent": "Glenn J. Olsen",
    "office": "Arendal"
  },
  {
    "id": 386214,
    "type": "searchagent",
    "name": "Jon Eker",
    "email": "joneker@msn.com",
    "lat": 58.446506500244,
    "lon": 8.7453880310059,
    "radius": 1,
    "estatetype": "enebolig",
    "price_min": 5100000,
    "price_max": 6800000,
    "area_min": 150,
    "area_max": 210,
    "consent": "2019-11-20T13:44:22+01:00",
    "oppdragsaddresse": "Seelanders Bakke 11",
    "oppdragsnummer": 40190188,
    "agent": "Glenn J. Olsen",
    "office": "Arendal"
  },
  {
    "id": 385533,
    "type": "searchagent",
    "name": "Simen Nisja",
    "email": "simen.nisja@hotmail.com",
    "lat": 59.758922576904,
    "lon": 10.049307823181,
    "radius": 1,
    "estatetype": "tomannsbolig",
    "price_min": 2500000,
    "price_max": 3500000,
    "area_min": 130,
    "area_max": 190,
    "consent": "2019-11-17T00:08:27+01:00",
    "oppdragsaddresse": "Sollia 3B",
    "oppdragsnummer": 11190141,
    "agent": "Simen Eknes Slotsvig",
    "office": "Drammen"
  },
  {
    "id": 385536,
    "type": "searchagent",
    "name": "Simen Nisja",
    "email": "simen.nisja@hotmail.com",
    "lat": 59.758922576904,
    "lon": 10.049307823181,
    "radius": 1,
    "estatetype": "tomannsbolig",
    "price_min": 2500000,
    "price_max": 3500000,
    "area_min": 130,
    "area_max": 190,
    "consent": "2019-11-17T00:09:17+01:00",
    "oppdragsaddresse": "Sollia 3B",
    "oppdragsnummer": 11190141,
    "agent": "Simen Eknes Slotsvig",
    "office": "Drammen"
  },
  {
    "id": 385527,
    "type": "searchagent",
    "name": "taher karim",
    "email": "taher_karim@hotmail.com",
    "lat": 59.758922576904,
    "lon": 10.049307823181,
    "radius": 1,
    "estatetype": "tomannsbolig",
    "price_min": 2500000,
    "price_max": 3500000,
    "area_min": 130,
    "area_max": 190,
    "consent": "2019-11-16T21:34:14+01:00",
    "oppdragsaddresse": "Sollia 3B",
    "oppdragsnummer": 11190141,
    "agent": "Simen Eknes Slotsvig",
    "office": "Drammen"
  },
  {
    "id": 385505,
    "type": "searchagent",
    "name": "Ronny Tveite",
    "email": "rotveite@gmail.com",
    "lat": 58.503154754639,
    "lon": 8.8559370040894,
    "radius": 1,
    "estatetype": "enebolig",
    "price_min": 1200000,
    "price_max": 1800000,
    "area_min": 180,
    "area_max": 250,
    "consent": "2019-11-16T16:55:32+01:00",
    "oppdragsaddresse": "Kystveien 828",
    "oppdragsnummer": 40180073,
    "agent": "Phong Thanh Tran",
    "office": "Arendal"
  },
  {
    "id": 385508,
    "type": "searchagent",
    "name": "Ronny Tveite",
    "email": "rotveite@gmail.com",
    "lat": 58.498832702637,
    "lon": 8.8623027801514,
    "radius": 1,
    "estatetype": "enebolig",
    "price_min": 1300000,
    "price_max": 1900000,
    "area_min": 170,
    "area_max": 240,
    "consent": "2019-11-16T16:59:10+01:00",
    "oppdragsaddresse": "Trygve Næss vei 6",
    "oppdragsnummer": 40190008,
    "agent": "Phong Thanh Tran",
    "office": "Arendal"
  },
  {
    "id": 385389,
    "type": "searchagent",
    "name": "Mantas Petrusinas",
    "email": "info@mantas.no",
    "lat": 59.697525024414,
    "lon": 10.243847846985,
    "radius": 1,
    "estatetype": "enebolig",
    "price_min": 2300000,
    "price_max": 3100000,
    "area_min": 160,
    "area_max": 220,
    "consent": "2019-11-15T12:07:24+01:00",
    "oppdragsaddresse": "Kobbervikdalen 128",
    "oppdragsnummer": 11190139,
    "agent": "Øystein Liverud",
    "office": "Drammen"
  },
  {
    "id": 385137,
    "type": "searchagent",
    "name": "Jan Vidar Larsen",
    "email": "jan.vidar@elektrikerost.no",
    "lat": 59.758922576904,
    "lon": 10.049307823181,
    "radius": 1,
    "estatetype": "tomannsbolig",
    "price_min": 2500000,
    "price_max": 3500000,
    "area_min": 130,
    "area_max": 190,
    "consent": "2019-11-13T21:18:50+01:00",
    "oppdragsaddresse": "Sollia 3B",
    "oppdragsnummer": 11190141,
    "agent": "Simen Eknes Slotsvig",
    "office": "Drammen"
  },
  {
    "id": 280830,
    "type": "searchagent",
    "name": "Petter Hagen",
    "email": "pethag@online.no",
    "lat": 59.741683959961,
    "lon": 10.156674385071,
    "radius": 1,
    "estatetype": "leilighet",
    "price_min": 2200000,
    "price_max": 3000000,
    "area_min": 60,
    "area_max": 100,
    "consent": "2018-07-13T13:02:37+02:00",
    "oppdragsaddresse": "Professor Smiths alle 105",
    "oppdragsnummer": 11180061,
    "agent": "Simen Eknes Slotsvig",
    "office": "Drammen"
  },
  {
    "id": 304752,
    "type": "searchagent",
    "name": "Petter Hagen",
    "email": "pethag@online.no",
    "lat": 59.751369476318,
    "lon": 10.17293548584,
    "radius": 1,
    "estatetype": "tomannsbolig",
    "price_min": 4900000,
    "price_max": 6500000,
    "area_min": 240,
    "area_max": 330,
    "consent": "2018-09-03T16:09:55+02:00",
    "oppdragsaddresse": "Henrik Ibsens gate 12",
    "oppdragsnummer": 11180077,
    "agent": "Nina Widerøe",
    "office": "Drammen"
  },
  {
    "id": 384443,
    "type": "searchagent",
    "name": "Petter Hagen",
    "email": "pethag@online.no",
    "lat": 59.75577545166,
    "lon": 10.140526771545,
    "radius": 1,
    "estatetype": "leilighet",
    "price_min": 2000000,
    "price_max": 2800000,
    "area_min": 40,
    "area_max": 70,
    "consent": "2019-11-09T19:52:46+01:00",
    "oppdragsaddresse": "Betzy Kjelsbergs vei 107B",
    "oppdragsnummer": 11190140,
    "agent": "Simen Eknes Slotsvig",
    "office": "Drammen"
  },
  {
    "id": 383995,
    "type": "searchagent",
    "name": "Kristine Knudsen",
    "email": "kriknu86@hotmail.com",
    "lat": 58.479312896729,
    "lon": 8.7575225830078,
    "radius": 1,
    "estatetype": "enebolig",
    "price_min": 2100000,
    "price_max": 2900000,
    "area_min": 140,
    "area_max": 200,
    "consent": "2019-11-06T11:16:32+01:00",
    "oppdragsaddresse": "Nye Stenklevvei 2 D",
    "oppdragsnummer": 40190078,
    "agent": "Phong Thanh Tran",
    "office": "Arendal"
  },
  {
    "id": 383470,
    "type": "searchagent",
    "name": "Monica Sommerstad",
    "email": "monicabrateng@hotmail.com",
    "lat": 59.746559143066,
    "lon": 10.211754798889,
    "radius": 1,
    "estatetype": "enebolig",
    "price_min": 4600000,
    "price_max": 6000000,
    "area_min": 80,
    "area_max": 130,
    "consent": "2019-11-03T15:03:43+01:00",
    "oppdragsaddresse": "Bergstien 64",
    "oppdragsnummer": 11190114,
    "agent": "Anders Ødenes",
    "office": "Drammen"
  },
  {
    "id": 383437,
    "type": "searchagent",
    "name": "Tove Eli  Gustavsen",
    "email": "toveeli@gmail.com",
    "lat": 59.731422424316,
    "lon": 10.302140235901,
    "radius": 1,
    "estatetype": "leilighet",
    "price_min": 6200000,
    "price_max": 8100000,
    "area_min": 80,
    "area_max": 120,
    "consent": "2019-11-03T12:58:09+01:00",
    "oppdragsaddresse": "Strandhusene Syd II - Engersand Havn",
    "oppdragsnummer": 11189002,
    "agent": "Øystein Liverud",
    "office": "Drammen"
  },
  {
    "id": 383375,
    "type": "searchagent",
    "name": "Lars Ove Nygaard",
    "email": "larsove.nygaard@hotmail.com",
    "lat": 58.461933135986,
    "lon": 8.7612333297729,
    "radius": 1,
    "estatetype": "enebolig",
    "price_min": 1200000,
    "price_max": 1800000,
    "area_min": 70,
    "area_max": 110,
    "consent": "2019-11-02T17:15:55+01:00",
    "oppdragsaddresse": "Klevgaten 9",
    "oppdragsnummer": 40190133,
    "agent": "Phong Thanh Tran",
    "office": "Arendal"
  },
  {
    "id": 383370,
    "type": "searchagent",
    "name": "Hilde Helene  Wergeland",
    "email": "Hildehelene@gmail.com",
    "lat": 59.987827301025,
    "lon": 9.9086675643921,
    "radius": 1,
    "estatetype": "enebolig",
    "price_min": 1900000,
    "price_max": 2600000,
    "area_min": 60,
    "area_max": 90,
    "consent": "2019-11-02T14:09:39+01:00",
    "oppdragsaddresse": "Sysleveien 97",
    "oppdragsnummer": 11190127,
    "agent": "Emilie Fredriksen",
    "office": "Drammen"
  },
  {
    "id": 383360,
    "type": "searchagent",
    "name": "Yusuf Ali Hassan",
    "email": "yusufgarad@hotmail.com",
    "lat": 58.481544494629,
    "lon": 8.7576580047607,
    "radius": 1,
    "estatetype": "enebolig",
    "price_min": 1800000,
    "price_max": 2500000,
    "area_min": 120,
    "area_max": 170,
    "consent": "2019-11-02T12:36:44+01:00",
    "oppdragsaddresse": "Molandsveien 74",
    "oppdragsnummer": 40190086,
    "agent": "Phong Thanh Tran",
    "office": "Arendal"
  },
  {
    "id": 381049,
    "type": "searchagent",
    "name": "Rune Johannessen-Ashton",
    "email": "rune.johannessen@mac.com",
    "lat": 59.737289428711,
    "lon": 10.193928718567,
    "radius": 1,
    "estatetype": "enebolig",
    "price_min": 3500000,
    "price_max": 4700000,
    "area_min": 80,
    "area_max": 120,
    "consent": "2019-10-19T13:30:29+02:00",
    "oppdragsaddresse": "Smalgangen 11",
    "oppdragsnummer": 11190118,
    "agent": "Emilie Fredriksen",
    "office": "Drammen"
  },
  {
    "id": 382370,
    "type": "searchagent",
    "name": "Rune Johannessen-Ashton",
    "email": "rune.johannessen@mac.com",
    "lat": 59.737289428711,
    "lon": 10.193928718567,
    "radius": 1,
    "estatetype": "enebolig",
    "price_min": 3500000,
    "price_max": 4700000,
    "area_min": 80,
    "area_max": 120,
    "consent": "2019-10-29T22:48:01+01:00",
    "oppdragsaddresse": "Smalgangen 11",
    "oppdragsnummer": 11190118,
    "agent": "Emilie Fredriksen",
    "office": "Drammen"
  },
  {
    "id": 382010,
    "type": "searchagent",
    "name": "Silje Husby",
    "email": "Husby.silje@gmail.com",
    "lat": 59.759178161621,
    "lon": 9.9761390686035,
    "radius": 1,
    "estatetype": "enebolig",
    "price_min": 5000000,
    "price_max": 6600000,
    "area_min": 200,
    "area_max": 280,
    "consent": "2019-10-25T20:08:48+02:00",
    "oppdragsaddresse": "Øenveien 22",
    "oppdragsnummer": 11190107,
    "agent": "Anders Ødenes",
    "office": "Drammen"
  },
  {
    "id": 382008,
    "type": "searchagent",
    "name": "Marius Johanssen",
    "email": "Marius_j92@hotmail.com",
    "lat": 59.759178161621,
    "lon": 9.9761390686035,
    "radius": 1,
    "estatetype": "enebolig",
    "price_min": 5000000,
    "price_max": 6600000,
    "area_min": 200,
    "area_max": 280,
    "consent": "2019-10-25T20:08:33+02:00",
    "oppdragsaddresse": "Øenveien 22",
    "oppdragsnummer": 11190107,
    "agent": "Anders Ødenes",
    "office": "Drammen"
  },
  {
    "id": 381085,
    "type": "searchagent",
    "name": "Samuel Yehdego Tesfay",
    "email": "Filmonyhdego@yahoo.com",
    "lat": 59.730171203613,
    "lon": 10.232041358948,
    "radius": 1,
    "estatetype": "tomannsbolig",
    "price_min": 2500000,
    "price_max": 3500000,
    "area_min": 60,
    "area_max": 100,
    "consent": "2019-10-19T23:06:22+02:00",
    "oppdragsaddresse": "Havnegata 36",
    "oppdragsnummer": 11190071,
    "agent": "Anders Ødenes",
    "office": "Drammen"
  },
  {
    "id": 380858,
    "type": "searchagent",
    "name": "Sebastian Sigurdsen",
    "email": "s.sigurdsen@gmail.com",
    "lat": 59.739593505859,
    "lon": 10.203094482422,
    "radius": 1,
    "estatetype": "leilighet",
    "price_min": 1600000,
    "price_max": 2300000,
    "area_min": 20,
    "area_max": 50,
    "consent": "2019-10-17T22:16:55+02:00",
    "oppdragsaddresse": "Strømsø torg 5B",
    "oppdragsnummer": 11190100,
    "agent": "Emilie Fredriksen",
    "office": "Drammen"
  },
  {
    "id": 380741,
    "type": "searchagent",
    "name": "Ronny Hovsløkken",
    "email": "ronny.h@hotmail.no",
    "lat": 58.481544494629,
    "lon": 8.7576580047607,
    "radius": 1,
    "estatetype": "enebolig",
    "price_min": 1800000,
    "price_max": 2500000,
    "area_min": 120,
    "area_max": 170,
    "consent": "2019-10-17T12:49:48+02:00",
    "oppdragsaddresse": "Molandsveien 74",
    "oppdragsnummer": 40190086,
    "agent": "Phong Thanh Tran",
    "office": "Arendal"
  },
  {
    "id": 379941,
    "type": "searchagent",
    "name": "Fredric Sagen",
    "email": "fredricsagen@gmail.com",
    "lat": 59.713489532471,
    "lon": 10.254682540894,
    "radius": 1,
    "estatetype": "tomannsbolig",
    "price_min": 5100000,
    "price_max": 6700000,
    "area_min": 120,
    "area_max": 180,
    "consent": "2019-10-14T10:42:52+02:00",
    "oppdragsaddresse": "Olaf Mørchs vei 15",
    "oppdragsnummer": 11190082,
    "agent": "Simen Eknes Slotsvig",
    "office": "Drammen"
  },
  {
    "id": 89909,
    "type": "searchagent",
    "name": "Truls Ørpen",
    "email": "truls.orpen@hotmail.com",
    "lat": 59.746559143066,
    "lon": 10.211754798889,
    "radius": 1,
    "estatetype": "enebolig",
    "price_min": 13000000,
    "price_max": 19000000,
    "area_min": 320,
    "area_max": 440,
    "consent": "2018-11-15T13:58:53+01:00",
    "oppdragsaddresse": "Bergstien 64",
    "oppdragsnummer": 11180141,
    "agent": "Anders Ødenes",
    "office": "Drammen"
  },
  {
    "id": 379707,
    "type": "searchagent",
    "name": "Truls Ørpen",
    "email": "truls.orpen@hotmail.com",
    "lat": 59.745601654053,
    "lon": 10.217576980591,
    "radius": 1,
    "estatetype": "enebolig",
    "price_min": 8000000,
    "price_max": 10500000,
    "area_min": 140,
    "area_max": 200,
    "consent": "2019-10-11T22:32:21+02:00",
    "oppdragsaddresse": "Underhaugsveien 1",
    "oppdragsnummer": 11190123,
    "agent": "Simen Eknes Slotsvig",
    "office": "Drammen"
  },
  {
    "id": 379282,
    "type": "searchagent",
    "name": "Arne Christian Jørgensen",
    "email": "Achrisjo@online.no",
    "lat": 58.490341186523,
    "lon": 8.6203966140747,
    "radius": 1,
    "estatetype": "enebolig",
    "price_min": 2200000,
    "price_max": 3000000,
    "area_min": 110,
    "area_max": 160,
    "consent": "2019-10-09T18:31:40+02:00",
    "oppdragsaddresse": "Reiersølveien 150",
    "oppdragsnummer": 40190165,
    "agent": "Jan Terje Øygarden",
    "office": "Arendal"
  },
  {
    "id": 379208,
    "type": "searchagent",
    "name": "johanne amdal",
    "email": "thorbjornsen1992@hotmail.com",
    "lat": 58.528259277344,
    "lon": 8.4542541503906,
    "radius": 1,
    "estatetype": "enebolig",
    "price_min": 1400000,
    "price_max": 2000000,
    "area_min": 110,
    "area_max": 160,
    "consent": "2019-10-09T14:09:44+02:00",
    "oppdragsaddresse": "Øynaheiveien 290",
    "oppdragsnummer": 40190160,
    "agent": "Jan Terje Øygarden",
    "office": "Arendal"
  },
  {
    "id": 379068,
    "type": "searchagent",
    "name": "Hege Welle",
    "email": "hege.welle@hotmail.com",
    "lat": 59.745628356934,
    "lon": 10.203101158142,
    "radius": 1,
    "estatetype": "leilighet",
    "price_min": 3500000,
    "price_max": 4700000,
    "area_min": 70,
    "area_max": 110,
    "consent": "2019-10-08T23:55:30+02:00",
    "oppdragsaddresse": "Rådhusgata 6",
    "oppdragsnummer": 11190110,
    "agent": "Anders Ødenes",
    "office": "Drammen"
  },
  {
    "id": 378974,
    "type": "searchagent",
    "name": "steven zaia",
    "email": "steven_zaia@hotmail.com",
    "lat": 58.4799343,
    "lon": 8.7540086,
    "radius": 0.5,
    "estatetype": "enebolig",
    "price_min": 2500000,
    "price_max": 3400000,
    "area_min": 230,
    "area_max": 320,
    "consent": "2019-10-08T16:43:18+02:00"
  },
  {
    "id": 378777,
    "type": "searchagent",
    "name": "Rune Snekkerhaugen",
    "email": "rune@snekkerhaugen.com",
    "lat": 59.759178161621,
    "lon": 9.9761390686035,
    "radius": 1,
    "estatetype": "enebolig",
    "price_min": 5000000,
    "price_max": 6600000,
    "area_min": 200,
    "area_max": 280,
    "consent": "2019-10-08T12:02:17+02:00",
    "oppdragsaddresse": "Øenveien 22",
    "oppdragsnummer": 11190107,
    "agent": "Anders Ødenes",
    "office": "Drammen"
  },
  {
    "id": 378385,
    "type": "searchagent",
    "name": "elin pettersson",
    "email": "elinpettersson48@hotmail.com",
    "lat": 58.509437561035,
    "lon": 8.8423776626587,
    "radius": 1,
    "estatetype": "enebolig",
    "price_min": 2900000,
    "price_max": 3900000,
    "area_min": 140,
    "area_max": 200,
    "consent": "2019-10-06T10:08:20+02:00",
    "oppdragsaddresse": "Skogliveien 2A",
    "oppdragsnummer": 40190152,
    "agent": "Glenn J. Olsen",
    "office": "Arendal"
  },
  {
    "id": 378334,
    "type": "searchagent",
    "name": "Cora Martinsen",
    "email": "epidott@gmail.com",
    "lat": 59.739593505859,
    "lon": 10.203094482422,
    "radius": 1,
    "estatetype": "leilighet",
    "price_min": 1600000,
    "price_max": 2300000,
    "area_min": 20,
    "area_max": 50,
    "consent": "2019-10-05T14:37:17+02:00",
    "oppdragsaddresse": "Strømsø torg 5B",
    "oppdragsnummer": 11190100,
    "agent": "Emilie Fredriksen",
    "office": "Drammen"
  },
  {
    "id": 378212,
    "type": "searchagent",
    "name": "Olav Seljåsen",
    "email": "olav.se@online.no",
    "lat": 58.52751159668,
    "lon": 8.6406908035278,
    "radius": 1,
    "estatetype": "enebolig",
    "price_min": 2700000,
    "price_max": 3700000,
    "area_min": 150,
    "area_max": 210,
    "consent": "2019-10-04T14:21:34+02:00",
    "oppdragsaddresse": "Jomåsveien 251",
    "oppdragsnummer": 40190162,
    "agent": "Jan Terje Øygarden",
    "office": "Arendal"
  },
  {
    "id": 314730,
    "type": "searchagent",
    "name": "Ingri Zeiner-h",
    "email": "Ingrizeih@gmail.com",
    "lat": 59.524780273438,
    "lon": 10.333190917969,
    "radius": 1,
    "estatetype": "fritidseiendom",
    "price_min": 3200000,
    "price_max": 4300000,
    "area_min": 40,
    "area_max": 70,
    "consent": "2018-10-17T03:42:13+02:00",
    "oppdragsaddresse": "Killingholmen 3",
    "oppdragsnummer": 11180122,
    "agent": "Emilie Fredriksen",
    "office": "Drammen"
  },
  {
    "id": 118576,
    "type": "searchagent",
    "name": "Roald Danielsen",
    "email": "roald.danielsen@gmail.com",
    "lat": 58.4999,
    "lon": 8.63247,
    "radius": 5,
    "estatetype": "enebolig",
    "price_min": 2000000,
    "price_max": 3500000,
    "area_min": 0,
    "area_max": 10001,
    "consent": "2019-01-11T09:08:24+01:00"
  },
  {
    "id": 91160,
    "type": "searchagent",
    "name": "Bente Konstanse Larsen",
    "email": "blaarsen@gmail.com",
    "lat": 59.727890014648,
    "lon": 10.32075214386,
    "radius": 1,
    "estatetype": "enebolig",
    "price_min": 4400000,
    "price_max": 5900000,
    "area_min": 100,
    "area_max": 150,
    "consent": "2018-10-24T07:35:30+02:00",
    "oppdragsaddresse": "Brøholtlia 29",
    "oppdragsnummer": 11180152,
    "agent": "Anders Ødenes",
    "office": "Drammen"
  },
  {
    "id": 377453,
    "type": "searchagent",
    "name": "Lise G.  Nielsen",
    "email": "Lis.G.Nielsen@sshf.no",
    "lat": 58.461452484131,
    "lon": 8.7442188262939,
    "radius": 1,
    "estatetype": "leilighet",
    "price_min": 2000000,
    "price_max": 2800000,
    "area_min": 60,
    "area_max": 100,
    "consent": "2019-10-01T12:47:46+02:00",
    "oppdragsaddresse": "Bjønnesveien 23",
    "oppdragsnummer": 40190168,
    "agent": "Thomas Noddeland",
    "office": "Arendal"
  },
  {
    "id": 91041,
    "type": "searchagent",
    "name": "jens bjelke-holtermann",
    "email": "jens@hellerud-tannlege.no",
    "lat": 59.74670791626,
    "lon": 10.22479724884,
    "radius": 1,
    "estatetype": "enebolig",
    "price_min": 9700000,
    "price_max": 9700000,
    "area_min": 200,
    "area_max": 280,
    "consent": "2019-01-29T23:10:25+01:00",
    "oppdragsaddresse": "Løkkebergveien 41",
    "oppdragsnummer": 11180158,
    "agent": "Nina Widerøe",
    "office": "Drammen"
  },
  {
    "id": 83982,
    "type": "searchagent",
    "name": "jens bjelke-holtermann",
    "email": "jens@hellerud-tannlege.no",
    "lat": 59.717079162598,
    "lon": 10.127026557922,
    "radius": 1,
    "estatetype": "boligtomt",
    "price_min": 2600000,
    "price_max": 2600000,
    "area_min": 0,
    "area_max": 10,
    "consent": "2019-02-08T15:03:00+01:00",
    "oppdragsaddresse": "Hallingrudveien 9",
    "oppdragsnummer": 11180148,
    "agent": "Simen Eknes Slotsvig",
    "office": "Drammen"
  },
  {
    "id": 377207,
    "type": "searchagent",
    "name": "Sylvi Bjelke",
    "email": "sylvi.bjelke@gmail.com",
    "lat": 59.775077819824,
    "lon": 10.283971786499,
    "radius": 1,
    "estatetype": "enebolig",
    "price_min": 6900000,
    "price_max": 9000000,
    "area_min": 230,
    "area_max": 310,
    "consent": "2019-09-30T09:39:57+02:00",
    "oppdragsaddresse": "Vikerfaret 7",
    "oppdragsnummer": 11190105,
    "agent": "Anders Ødenes",
    "office": "Drammen"
  },
  {
    "id": 377071,
    "type": "searchagent",
    "name": "Gro Merethe Johnsrud",
    "email": "Gro.merethe@gmail.com",
    "lat": 59.920295715332,
    "lon": 10.769425392151,
    "radius": 1,
    "estatetype": "leilighet",
    "price_min": 3200000,
    "price_max": 4300000,
    "area_min": 40,
    "area_max": 80,
    "consent": "2019-09-29T00:38:30+02:00",
    "oppdragsaddresse": "Sars` gate 16",
    "oppdragsnummer": 11190093,
    "agent": "Emilie Fredriksen",
    "office": "Drammen"
  },
  {
    "id": 343760,
    "type": "searchagent",
    "name": "Stamati Stenseth",
    "email": "Ss@bobedreas.no",
    "lat": 59.537330627441,
    "lon": 10.417841911316,
    "radius": 1,
    "estatetype": "hytte",
    "price_min": 4400000,
    "price_max": 5800000,
    "area_min": 90,
    "area_max": 140,
    "consent": "2019-05-16T17:44:04+02:00",
    "oppdragsaddresse": "Rødtanglia 1B",
    "oppdragsnummer": 11190050,
    "agent": "Nina Widerøe",
    "office": "Drammen"
  },
  {
    "id": 376994,
    "type": "searchagent",
    "name": "johanna bernal",
    "email": "c.johannabernal@gmail.com",
    "lat": 59.844612796743,
    "lon": 10.683395861764,
    "radius": 13,
    "estatetype": "leilighet",
    "price_min": 3100000,
    "price_max": 4200000,
    "area_min": 40,
    "area_max": 270,
    "consent": "2019-09-27T17:50:40+02:00"
  },
  {
    "id": 375466,
    "type": "searchagent",
    "name": "Fredrik Harbou-Hals",
    "email": "f.h-h@hotmail.no",
    "lat": 59.717792510986,
    "lon": 10.369707107544,
    "radius": 1,
    "estatetype": "enebolig",
    "price_min": 12000000,
    "price_max": 18000000,
    "area_min": 170,
    "area_max": 240,
    "consent": "2019-09-20T11:44:22+02:00",
    "oppdragsaddresse": "Gamleveien 20",
    "oppdragsnummer": 11190037,
    "agent": "Anders Ødenes",
    "office": "Drammen"
  },
  {
    "id": 375170,
    "type": "searchagent",
    "name": "Hege Sitje",
    "email": "hege.sitje@live.no",
    "lat": 59.775077819824,
    "lon": 10.283971786499,
    "radius": 1,
    "estatetype": "enebolig",
    "price_min": 7300000,
    "price_max": 9600000,
    "area_min": 230,
    "area_max": 310,
    "consent": "2019-09-18T19:15:48+02:00",
    "oppdragsaddresse": "Vikerfaret 7",
    "oppdragsnummer": 11190105,
    "agent": "Anders Ødenes",
    "office": "Drammen"
  },
  {
    "id": 375172,
    "type": "searchagent",
    "name": "Hege Sitje",
    "email": "hege.sitje@live.no",
    "lat": 59.775077819824,
    "lon": 10.283971786499,
    "radius": 1,
    "estatetype": "enebolig",
    "price_min": 7300000,
    "price_max": 9600000,
    "area_min": 230,
    "area_max": 310,
    "consent": "2019-09-18T19:16:22+02:00",
    "oppdragsaddresse": "Vikerfaret 7",
    "oppdragsnummer": 11190105,
    "agent": "Anders Ødenes",
    "office": "Drammen"
  },
  {
    "id": 374940,
    "type": "searchagent",
    "name": "Jelena Arsic",
    "email": "jelena121285@yahoo.com",
    "lat": 59.762363433838,
    "lon": 10.450370788574,
    "radius": 1,
    "estatetype": "rekkehus",
    "price_min": 3300000,
    "price_max": 4400000,
    "area_min": 90,
    "area_max": 130,
    "consent": "2019-09-17T20:27:57+02:00",
    "oppdragsaddresse": "Frøyas vei 55",
    "oppdragsnummer": 11190094,
    "agent": "Simen Eknes Slotsvig",
    "office": "Drammen"
  },
  {
    "id": 374743,
    "type": "searchagent",
    "name": "Irene Thy",
    "email": "IT2011@live.no",
    "lat": 59.759178161621,
    "lon": 9.9761390686035,
    "radius": 1,
    "estatetype": "enebolig",
    "price_min": 5500000,
    "price_max": 7200000,
    "area_min": 200,
    "area_max": 280,
    "consent": "2019-09-17T11:43:09+02:00",
    "oppdragsaddresse": "Øenveien 22",
    "oppdragsnummer": 11190107,
    "agent": "Anders Ødenes",
    "office": "Drammen"
  },
  {
    "id": 374473,
    "type": "searchagent",
    "name": "Per Ivar Haugland",
    "email": "primsiger2@gmail.com",
    "lat": 58.470512390137,
    "lon": 8.7714996337891,
    "radius": 1,
    "estatetype": "enebolig",
    "price_min": 2100000,
    "price_max": 2900000,
    "area_min": 140,
    "area_max": 200,
    "consent": "2019-09-16T11:24:29+02:00",
    "oppdragsaddresse": "Rømmekollen 12",
    "oppdragsnummer": 40180218,
    "agent": "Glenn J. Olsen",
    "office": "Arendal"
  },
  {
    "id": 374265,
    "type": "searchagent",
    "name": "Inger",
    "email": "ingerjmj@gmail.com",
    "lat": 58.383767679627,
    "lon": 8.6333061972431,
    "radius": 17,
    "estatetype": "leilighet,rekkehus,tomannsbolig",
    "price_min": 2000000,
    "price_max": 3000000,
    "area_min": 73,
    "area_max": 170,
    "consent": "2019-09-14T17:29:12+02:00"
  },
  {
    "id": 374268,
    "type": "searchagent",
    "name": "Inger-Johanne",
    "email": "ingerjmj@gmail.com",
    "lat": 58.422481418691,
    "lon": 8.6219735147201,
    "radius": 14,
    "estatetype": "leilighet,rekkehus,tomannsbolig",
    "price_min": 900000,
    "price_max": 3000000,
    "area_min": 68,
    "area_max": 160,
    "consent": "2019-09-14T17:57:44+02:00"
  },
  {
    "id": 374212,
    "type": "searchagent",
    "name": "Roger Aamoth",
    "email": "raaamoth@online.no",
    "lat": 59.775077819824,
    "lon": 10.283971786499,
    "radius": 1,
    "estatetype": "enebolig",
    "price_min": 7300000,
    "price_max": 9600000,
    "area_min": 230,
    "area_max": 310,
    "consent": "2019-09-14T09:54:09+02:00",
    "oppdragsaddresse": "Vikerfaret 7",
    "oppdragsnummer": 11190105,
    "agent": "Anders Ødenes",
    "office": "Drammen"
  },
  {
    "id": 374189,
    "type": "searchagent",
    "name": "Mona lisa  Grimsrud",
    "email": "mona.lisa.grimsrud@gmail.com",
    "lat": 58.500949859619,
    "lon": 8.6429672241211,
    "radius": 1,
    "estatetype": "enebolig",
    "price_min": 1600000,
    "price_max": 2300000,
    "area_min": 240,
    "area_max": 330,
    "consent": "2019-09-13T21:44:36+02:00",
    "oppdragsaddresse": "Messelveien 45",
    "oppdragsnummer": 40190145,
    "agent": "Jan Terje Øygarden",
    "office": "Arendal"
  },
  {
    "id": 374064,
    "type": "searchagent",
    "name": "Berit Ommundsen",
    "email": "berit.ommundsen@kul.oslo.kommune.no",
    "lat": 58.509437561035,
    "lon": 8.8423776626587,
    "radius": 1,
    "estatetype": "enebolig",
    "price_min": 2900000,
    "price_max": 3900000,
    "area_min": 140,
    "area_max": 200,
    "consent": "2019-09-13T10:36:11+02:00",
    "oppdragsaddresse": "Skogliveien 2A",
    "oppdragsnummer": 40190152,
    "agent": "Glenn J. Olsen",
    "office": "Arendal"
  },
  {
    "id": 294012,
    "type": "searchagent",
    "name": "Håkon Stensrud",
    "email": "hakon.stensrud94@gmail.com",
    "lat": 58.465251922607,
    "lon": 8.7609014511108,
    "radius": 1,
    "estatetype": "næring",
    "price_min": 1300000,
    "price_max": 1900000,
    "area_min": 0,
    "area_max": 10,
    "consent": "2018-08-17T19:14:07+02:00",
    "oppdragsaddresse": "Blødekjær 9",
    "oppdragsnummer": 40170239,
    "agent": "Phong Thanh Tran",
    "office": "Arendal"
  },
  {
    "id": 371849,
    "type": "searchagent",
    "name": "Hans Petter Ask",
    "email": "hpa@autoco.no",
    "lat": 59.729049682617,
    "lon": 10.24502658844,
    "radius": 1,
    "estatetype": "leilighet",
    "price_min": 1100000,
    "price_max": 1600000,
    "area_min": 30,
    "area_max": 60,
    "consent": "2019-09-07T11:21:43+02:00",
    "oppdragsaddresse": "Havnegata 92",
    "oppdragsnummer": 11190101,
    "agent": "Simen Eknes Slotsvig",
    "office": "Drammen"
  },
  {
    "id": 337784,
    "type": "searchagent",
    "name": "Ingeborg Borgen",
    "email": "inkaborg@gmail.com",
    "lat": 59.717792510986,
    "lon": 10.369707107544,
    "radius": 1,
    "estatetype": "enebolig",
    "price_min": 13000000,
    "price_max": 18000000,
    "area_min": 170,
    "area_max": 240,
    "consent": "2019-04-27T10:29:32+02:00",
    "oppdragsaddresse": "Gamleveien 20",
    "oppdragsnummer": 11190037,
    "agent": "Anders Ødenes",
    "office": "Drammen"
  },
  {
    "id": 370699,
    "type": "searchagent",
    "name": "Rujira Coles",
    "email": "Rujira@online.no",
    "lat": 59.729049682617,
    "lon": 10.24502658844,
    "radius": 1,
    "estatetype": "leilighet",
    "price_min": 1100000,
    "price_max": 1600000,
    "area_min": 30,
    "area_max": 60,
    "consent": "2019-09-02T22:38:28+02:00",
    "oppdragsaddresse": "Havnegata 92",
    "oppdragsnummer": 11190101,
    "agent": "Simen Eknes Slotsvig",
    "office": "Drammen"
  },
  {
    "id": 336173,
    "type": "searchagent",
    "name": "Mariusz Lesniak",
    "email": "lesniakm4@gmail.com",
    "lat": 58.525459289551,
    "lon": 8.8737831115723,
    "radius": 1,
    "estatetype": "enebolig",
    "price_min": 1000000,
    "price_max": 1500000,
    "area_min": 120,
    "area_max": 170,
    "consent": "2019-04-22T15:37:13+02:00",
    "oppdragsaddresse": "Våjeveien 64",
    "oppdragsnummer": 40180072,
    "agent": "Phong Thanh Tran",
    "office": "Arendal"
  },
  {
    "id": 370116,
    "type": "searchagent",
    "name": "Mariusz Lesniak",
    "email": "lesniakm4@gmail.com",
    "lat": 58.443298339844,
    "lon": 8.7500991821289,
    "radius": 1,
    "estatetype": "enebolig",
    "price_min": 1300000,
    "price_max": 1900000,
    "area_min": 110,
    "area_max": 160,
    "consent": "2019-08-31T09:54:26+02:00",
    "oppdragsaddresse": "Kirkeveien 88",
    "oppdragsnummer": 40190142,
    "agent": "Glenn J. Olsen",
    "office": "Arendal"
  },
  {
    "id": 309352,
    "type": "searchagent",
    "name": "Linga Reddy Cenkeramaddi",
    "email": "clreddy.shashi@gmail.com",
    "lat": 58.434185028076,
    "lon": 8.7421903610229,
    "radius": 1,
    "estatetype": "enebolig",
    "price_min": 1900000,
    "price_max": 2700000,
    "area_min": 140,
    "area_max": 200,
    "consent": "2018-09-18T11:34:50+02:00",
    "oppdragsaddresse": "Gamle Kirkevei 11",
    "oppdragsnummer": 40180197,
    "agent": "Phong Thanh Tran",
    "office": "Arendal"
  },
  {
    "id": 370058,
    "type": "searchagent",
    "name": "Linga Reddy Cenkeramaddi",
    "email": "clreddy.shashi@gmail.com",
    "lat": 58.443298339844,
    "lon": 8.7500991821289,
    "radius": 1,
    "estatetype": "enebolig",
    "price_min": 1300000,
    "price_max": 1900000,
    "area_min": 110,
    "area_max": 160,
    "consent": "2019-08-30T17:05:16+02:00",
    "oppdragsaddresse": "Kirkeveien 88",
    "oppdragsnummer": 40190142,
    "agent": "Glenn J. Olsen",
    "office": "Arendal"
  },
  {
    "id": 369389,
    "type": "searchagent",
    "name": "Silje Naustdal Bentsen",
    "email": "silje_XD@live.com",
    "lat": 58.466156005859,
    "lon": 8.74937915802,
    "radius": 1,
    "estatetype": "leilighet",
    "price_min": 1600000,
    "price_max": 2200000,
    "area_min": 40,
    "area_max": 70,
    "consent": "2019-08-28T13:00:58+02:00",
    "oppdragsaddresse": "Kirkegårdsveien 15 K",
    "oppdragsnummer": 40190122,
    "agent": "Thomas Noddeland",
    "office": "Arendal"
  },
  {
    "id": 90386,
    "type": "searchagent",
    "name": "Frode Rønning",
    "email": "fr-roen2@online.no",
    "lat": 58.457138061523,
    "lon": 8.7173404693604,
    "radius": 1,
    "estatetype": "næring",
    "price_min": 4500000,
    "price_max": 5900000,
    "area_min": 0,
    "area_max": 10,
    "consent": "2018-12-25T14:50:57+01:00",
    "oppdragsaddresse": "Industritoppen 22 A",
    "oppdragsnummer": 40180046,
    "agent": "Glenn J. Olsen",
    "office": "Arendal"
  },
  {
    "id": 325699,
    "type": "searchagent",
    "name": "Frode Rønning",
    "email": "fr-roen2@online.no",
    "lat": 58.477745056152,
    "lon": 8.8227043151855,
    "radius": 1,
    "estatetype": "enebolig",
    "price_min": 800000,
    "price_max": 1300000,
    "area_min": 110,
    "area_max": 160,
    "consent": "2019-03-12T18:25:29+01:00",
    "oppdragsaddresse": "Dyvigodden 7",
    "oppdragsnummer": 40190034,
    "agent": "Thomas Noddeland",
    "office": "Arendal"
  },
  {
    "id": 366240,
    "type": "searchagent",
    "name": "Kenneth Kruse",
    "email": "kennethkruse91@gmail.com",
    "lat": 58.502243041992,
    "lon": 8.8502311706543,
    "radius": 1,
    "estatetype": "enebolig",
    "price_min": 2800000,
    "price_max": 3800000,
    "area_min": 140,
    "area_max": 190,
    "consent": "2019-08-16T19:59:50+02:00",
    "oppdragsaddresse": "Guttorm Fløistads vei 28",
    "oppdragsnummer": 40190134,
    "agent": "Thomas Noddeland",
    "office": "Arendal"
  },
  {
    "id": 366316,
    "type": "searchagent",
    "name": "Ivar Øygarden",
    "email": "ivar.oygarden@live.no",
    "lat": 58.601440429688,
    "lon": 8.4170188903809,
    "radius": 1,
    "estatetype": "landbruk",
    "price_min": 5300000,
    "price_max": 7000000,
    "area_min": 220,
    "area_max": 300,
    "consent": "2019-08-17T09:35:42+02:00",
    "oppdragsaddresse": "Telemarksveien 165",
    "oppdragsnummer": 40190120,
    "agent": "Jan Terje Øygarden",
    "office": "Arendal"
  },
  {
    "id": 313585,
    "type": "searchagent",
    "name": "Vigdis Almestad",
    "email": "Valmestad@yahoo.no",
    "lat": 58.632419586182,
    "lon": 9.1277847290039,
    "radius": 1,
    "estatetype": "fritidseiendom",
    "price_min": 3100000,
    "price_max": 4200000,
    "area_min": 30,
    "area_max": 60,
    "consent": "2018-10-03T14:55:25+02:00",
    "oppdragsaddresse": "Lyngørsida 15",
    "oppdragsnummer": 40180078,
    "agent": "Phong Thanh Tran",
    "office": "Arendal"
  },
  {
    "id": 365037,
    "type": "searchagent",
    "name": "Catalin Rosianu",
    "email": "Nicusor.rosianu@gmail.com",
    "lat": 59.757141113281,
    "lon": 10.043919563293,
    "radius": 1,
    "estatetype": "enebolig",
    "price_min": 3500000,
    "price_max": 4700000,
    "area_min": 130,
    "area_max": 180,
    "consent": "2019-08-12T19:14:48+02:00",
    "oppdragsaddresse": "Sollia 13",
    "oppdragsnummer": 11190079,
    "agent": "Emilie Fredriksen",
    "office": "Drammen"
  },
  {
    "id": 364566,
    "type": "searchagent",
    "name": "Markus Brandstetter",
    "email": "mbe.brandstetter@gmail.com",
    "lat": 58.646991729736,
    "lon": 8.4137153625488,
    "radius": 1,
    "estatetype": "hytte",
    "price_min": 800000,
    "price_max": 1200000,
    "area_min": 40,
    "area_max": 70,
    "consent": "2019-08-10T18:42:42+02:00",
    "oppdragsaddresse": "Berås 150",
    "oppdragsnummer": 40190088,
    "agent": "Glenn J. Olsen",
    "office": "Arendal"
  },
  {
    "id": 328313,
    "type": "searchagent",
    "name": "Liv Tønnessen",
    "email": "livkor7@hotmail.com",
    "lat": 58.662601470947,
    "lon": 8.2468194961548,
    "radius": 1,
    "estatetype": "landbruk",
    "price_min": 800000,
    "price_max": 1200000,
    "area_min": 80,
    "area_max": 120,
    "consent": "2019-03-23T21:49:02+01:00",
    "oppdragsaddresse": "Øvre Lauvrak 195",
    "oppdragsnummer": 40180171,
    "agent": "Jan Terje Øygarden",
    "office": "Arendal"
  },
  {
    "id": 281273,
    "type": "searchagent",
    "name": "Liv Tønnessen",
    "email": "Livkor7@hotmail.com",
    "lat": 58.662601470947,
    "lon": 8.2468194961548,
    "radius": 1,
    "estatetype": "landbruk",
    "price_min": 800000,
    "price_max": 1200000,
    "area_min": 80,
    "area_max": 120,
    "consent": "2018-07-17T08:55:23+02:00",
    "oppdragsaddresse": "Øvre Lauvrak 195",
    "oppdragsnummer": 40180171,
    "agent": "Jan Terje Øygarden",
    "office": "Arendal"
  },
  {
    "id": 363271,
    "type": "searchagent",
    "name": "Gro Vale",
    "email": "gro.vale.74@gmail.com",
    "lat": 58.373039245605,
    "lon": 8.6632680892944,
    "radius": 1,
    "estatetype": "enebolig",
    "price_min": 2300000,
    "price_max": 3100000,
    "area_min": 180,
    "area_max": 250,
    "consent": "2019-08-05T20:29:30+02:00",
    "oppdragsaddresse": "Lillevei 50",
    "oppdragsnummer": 40190027,
    "agent": "Phong Thanh Tran",
    "office": "Arendal"
  },
  {
    "id": 362919,
    "type": "searchagent",
    "name": "Alexander Nesheim",
    "email": "Alexander.nesheim@alverinvest.no",
    "lat": 58.824432373047,
    "lon": 9.0733785629272,
    "radius": 1,
    "estatetype": "næring",
    "price_min": 5300000,
    "price_max": 6900000,
    "area_min": 330,
    "area_max": 440,
    "consent": "2019-08-04T11:50:11+02:00",
    "oppdragsaddresse": "Brokelandsheia 124",
    "oppdragsnummer": 40170282,
    "agent": "Glenn J. Olsen",
    "office": "Arendal"
  },
  {
    "id": 362866,
    "type": "searchagent",
    "name": "Laila Lilaa",
    "email": "lailalilaa71@gmail.com",
    "lat": 59.757141113281,
    "lon": 10.043919563293,
    "radius": 1,
    "estatetype": "enebolig",
    "price_min": 3500000,
    "price_max": 4700000,
    "area_min": 130,
    "area_max": 180,
    "consent": "2019-08-03T14:29:36+02:00",
    "oppdragsaddresse": "Sollia 13",
    "oppdragsnummer": 11190079,
    "agent": "Emilie Fredriksen",
    "office": "Drammen"
  },
  {
    "id": 362850,
    "type": "searchagent",
    "name": "Recep  Eryigit",
    "email": "reryigit@live.no",
    "lat": 59.757141113281,
    "lon": 10.043919563293,
    "radius": 1,
    "estatetype": "enebolig",
    "price_min": 3500000,
    "price_max": 4700000,
    "area_min": 130,
    "area_max": 180,
    "consent": "2019-08-03T12:49:04+02:00",
    "oppdragsaddresse": "Sollia 13",
    "oppdragsnummer": 11190079,
    "agent": "Emilie Fredriksen",
    "office": "Drammen"
  },
  {
    "id": 362853,
    "type": "searchagent",
    "name": "Recep Eryigit",
    "email": "reryigit@live.no",
    "lat": 59.757141113281,
    "lon": 10.043919563293,
    "radius": 1,
    "estatetype": "enebolig",
    "price_min": 3500000,
    "price_max": 4700000,
    "area_min": 130,
    "area_max": 180,
    "consent": "2019-08-03T12:50:17+02:00",
    "oppdragsaddresse": "Sollia 13",
    "oppdragsnummer": 11190079,
    "agent": "Emilie Fredriksen",
    "office": "Drammen"
  },
  {
    "id": 362813,
    "type": "searchagent",
    "name": "Kristian Kristiansen",
    "email": "heshest@hotmail.com",
    "lat": 59.757141113281,
    "lon": 10.043919563293,
    "radius": 1,
    "estatetype": "enebolig",
    "price_min": 3500000,
    "price_max": 4700000,
    "area_min": 130,
    "area_max": 180,
    "consent": "2019-08-02T21:44:54+02:00",
    "oppdragsaddresse": "Sollia 13",
    "oppdragsnummer": 11190079,
    "agent": "Emilie Fredriksen",
    "office": "Drammen"
  },
  {
    "id": 276631,
    "type": "searchagent",
    "name": "Frode Sörensen",
    "email": "frsoer2@online.no",
    "lat": 58.468120574951,
    "lon": 8.7803983688354,
    "radius": 1,
    "estatetype": "enebolig",
    "price_min": 900000,
    "price_max": 1400000,
    "area_min": 80,
    "area_max": 120,
    "consent": "2018-06-19T23:02:44+02:00",
    "oppdragsaddresse": "Hasselhaugen 6",
    "oppdragsnummer": 40170292,
    "agent": "Thomas Noddeland",
    "office": "Arendal"
  },
  {
    "id": 361970,
    "type": "searchagent",
    "name": "Oddbjørn Halstensen",
    "email": "ohalsten@online.no",
    "lat": 59.733318328857,
    "lon": 10.302283287048,
    "radius": 1,
    "estatetype": "leilighet",
    "price_min": 5200000,
    "price_max": 6900000,
    "area_min": 90,
    "area_max": 130,
    "consent": "2019-07-29T22:24:06+02:00",
    "oppdragsaddresse": "Fjordsvingen 11",
    "oppdragsnummer": 11190083,
    "agent": "Simen Eknes Slotsvig",
    "office": "Drammen"
  },
  {
    "id": 361674,
    "type": "searchagent",
    "name": "Tove Haaberg",
    "email": "tove.haaberg@hotmail.com",
    "lat": 59.537330627441,
    "lon": 10.417841911316,
    "radius": 1,
    "estatetype": "hyttetomt",
    "price_min": 800000,
    "price_max": 1200000,
    "area_min": 0,
    "area_max": 10,
    "consent": "2019-07-28T19:23:37+02:00",
    "oppdragsaddresse": "Rødtanglia 1",
    "oppdragsnummer": 11190080,
    "agent": "Øystein Liverud",
    "office": "Drammen"
  },
  {
    "id": 361172,
    "type": "searchagent",
    "name": "Nils Hole",
    "email": "post@industritaksering.no",
    "lat": 59.742050170898,
    "lon": 10.211973190308,
    "radius": 1,
    "estatetype": "leilighet",
    "price_min": 6200000,
    "price_max": 8200000,
    "area_min": 100,
    "area_max": 150,
    "consent": "2019-07-24T10:16:03+02:00",
    "oppdragsaddresse": "Sundgata 7",
    "oppdragsnummer": 11190055,
    "agent": "Simen Eknes Slotsvig",
    "office": "Drammen"
  },
  {
    "id": 360577,
    "type": "searchagent",
    "name": "Cornelia Viken",
    "email": "vcornelia@hotmail.no",
    "lat": 59.749706268311,
    "lon": 10.196330070496,
    "radius": 1,
    "estatetype": "leilighet",
    "price_min": 900000,
    "price_max": 1400000,
    "area_min": 20,
    "area_max": 40,
    "consent": "2019-07-19T11:02:07+02:00",
    "oppdragsaddresse": "Konggata 53B",
    "oppdragsnummer": 11190065,
    "agent": "Simen Eknes Slotsvig",
    "office": "Drammen"
  },
  {
    "id": 90388,
    "type": "searchagent",
    "name": "Fred G Husby",
    "email": "fred.husby@gmail.com",
    "lat": 58.662601470947,
    "lon": 8.2468194961548,
    "radius": 1,
    "estatetype": "landbruk",
    "price_min": 800000,
    "price_max": 1200000,
    "area_min": 80,
    "area_max": 120,
    "consent": "2018-12-26T03:27:10+01:00",
    "oppdragsaddresse": "Øvre Lauvrak 195",
    "oppdragsnummer": 40180171,
    "agent": "Jan Terje Øygarden",
    "office": "Arendal"
  },
  {
    "id": 360878,
    "type": "searchagent",
    "name": "Fred G Husby",
    "email": "fred.husby@gmail.com",
    "lat": 58.502136230469,
    "lon": 8.4265241622925,
    "radius": 1,
    "estatetype": "landbruk",
    "price_min": 900000,
    "price_max": 1400000,
    "area_min": 110,
    "area_max": 160,
    "consent": "2019-07-22T10:55:49+02:00",
    "oppdragsaddresse": "Holtebuveien 135",
    "oppdragsnummer": 40190108,
    "agent": "Jan Terje Øygarden",
    "office": "Arendal"
  },
  {
    "id": 360795,
    "type": "searchagent",
    "name": "Maiken  Bjørkli",
    "email": "Maiken@bjorkligarden.com",
    "lat": 58.502136230469,
    "lon": 8.4265241622925,
    "radius": 1,
    "estatetype": "landbruk",
    "price_min": 900000,
    "price_max": 1400000,
    "area_min": 110,
    "area_max": 160,
    "consent": "2019-07-21T18:33:26+02:00",
    "oppdragsaddresse": "Holtebuveien 135",
    "oppdragsnummer": 40190108,
    "agent": "Jan Terje Øygarden",
    "office": "Arendal"
  },
  {
    "id": 360635,
    "type": "searchagent",
    "name": "Elin Berntsen",
    "email": "Elnberntsen1@gmail.com",
    "lat": 58.502136230469,
    "lon": 8.4265241622925,
    "radius": 1,
    "estatetype": "landbruk",
    "price_min": 900000,
    "price_max": 1400000,
    "area_min": 110,
    "area_max": 160,
    "consent": "2019-07-20T02:15:07+02:00",
    "oppdragsaddresse": "Holtebuveien 135",
    "oppdragsnummer": 40190108,
    "agent": "Jan Terje Øygarden",
    "office": "Arendal"
  },
  {
    "id": 360601,
    "type": "searchagent",
    "name": "Geir Olsen",
    "email": "geir@respond.no",
    "lat": 58.502136230469,
    "lon": 8.4265241622925,
    "radius": 1,
    "estatetype": "landbruk",
    "price_min": 900000,
    "price_max": 1400000,
    "area_min": 110,
    "area_max": 160,
    "consent": "2019-07-19T15:59:57+02:00",
    "oppdragsaddresse": "Holtebuveien 135",
    "oppdragsnummer": 40190108,
    "agent": "Jan Terje Øygarden",
    "office": "Arendal"
  },
  {
    "id": 360463,
    "type": "searchagent",
    "name": "Andreas Hauge",
    "email": "achauge@gmail.com",
    "lat": 58.502136230469,
    "lon": 8.4265241622925,
    "radius": 1,
    "estatetype": "landbruk",
    "price_min": 900000,
    "price_max": 1400000,
    "area_min": 110,
    "area_max": 160,
    "consent": "2019-07-17T19:53:06+02:00",
    "oppdragsaddresse": "Holtebuveien 135",
    "oppdragsnummer": 40190108,
    "agent": "Jan Terje Øygarden",
    "office": "Arendal"
  },
  {
    "id": 360446,
    "type": "searchagent",
    "name": "Alf Bakkland",
    "email": "Alf.bakkland@hotmail.no",
    "lat": 59.749214172363,
    "lon": 10.202264785767,
    "radius": 1,
    "estatetype": "leilighet",
    "price_min": 3500000,
    "price_max": 4700000,
    "area_min": 70,
    "area_max": 110,
    "consent": "2019-07-17T17:13:40+02:00",
    "oppdragsaddresse": "Bergstien 31c, seksjon 1",
    "oppdragsnummer": 11190073,
    "agent": "Nina Widerøe",
    "office": "Drammen"
  },
  {
    "id": 360345,
    "type": "searchagent",
    "name": "Henning Anundsen",
    "email": "hanundsen@gmail.com",
    "lat": 58.601009368896,
    "lon": 8.4150810241699,
    "radius": 1,
    "estatetype": "enebolig",
    "price_min": 2800000,
    "price_max": 3800000,
    "area_min": 170,
    "area_max": 240,
    "consent": "2019-07-17T05:57:54+02:00",
    "oppdragsaddresse": "Telemarksveien 163",
    "oppdragsnummer": 40190114,
    "agent": "Jan Terje Øygarden",
    "office": "Arendal"
  },
  {
    "id": 360342,
    "type": "searchagent",
    "name": "Maiken Bjørkli",
    "email": "Formapost@bjorkligarden.com",
    "lat": 58.502136230469,
    "lon": 8.4265241622925,
    "radius": 1,
    "estatetype": "landbruk",
    "price_min": 900000,
    "price_max": 1400000,
    "area_min": 110,
    "area_max": 160,
    "consent": "2019-07-17T01:39:05+02:00",
    "oppdragsaddresse": "Holtebuveien 135",
    "oppdragsnummer": 40190108,
    "agent": "Jan Terje Øygarden",
    "office": "Arendal"
  },
  {
    "id": 359800,
    "type": "searchagent",
    "name": "Kari flaterud",
    "email": "kari.flaterud@gmail.com",
    "lat": 59.564556793405,
    "lon": 10.454806202848,
    "radius": 5,
    "estatetype": "hyttetomt",
    "price_min": 2000000,
    "price_max": 3000000,
    "area_min": 50,
    "area_max": 70,
    "consent": "2019-07-11T18:23:38+02:00"
  },
  {
    "id": 359660,
    "type": "searchagent",
    "name": "Anders Abelseth",
    "email": "anders-abelseth@hotmail.com",
    "lat": 59.749706268311,
    "lon": 10.196330070496,
    "radius": 1,
    "estatetype": "leilighet",
    "price_min": 900000,
    "price_max": 1400000,
    "area_min": 20,
    "area_max": 40,
    "consent": "2019-07-10T17:10:15+02:00",
    "oppdragsaddresse": "Konggata 53B",
    "oppdragsnummer": 11190065,
    "agent": "Simen Eknes Slotsvig",
    "office": "Drammen"
  },
  {
    "id": 359603,
    "type": "searchagent",
    "name": "Lene Lien",
    "email": "lene.lien@maskinutleie.no",
    "lat": 59.758144378662,
    "lon": 10.128039360046,
    "radius": 1,
    "estatetype": "leilighet",
    "price_min": 2500000,
    "price_max": 3400000,
    "area_min": 50,
    "area_max": 90,
    "consent": "2019-07-10T11:39:33+02:00",
    "oppdragsaddresse": "Bolstadhagen 21",
    "oppdragsnummer": 11190075,
    "agent": "Simen Eknes Slotsvig",
    "office": "Drammen"
  },
  {
    "id": 358236,
    "type": "searchagent",
    "name": "trond glommen",
    "email": "tg@songeeiendom.com",
    "lat": 58.475257873535,
    "lon": 8.7975616455078,
    "radius": 1,
    "estatetype": "enebolig",
    "price_min": 4400000,
    "price_max": 5800000,
    "area_min": 210,
    "area_max": 290,
    "consent": "2019-07-03T13:01:16+02:00",
    "oppdragsaddresse": "Gamle Songevei 111",
    "oppdragsnummer": 40190066,
    "agent": "Glenn J. Olsen",
    "office": "Arendal"
  },
  {
    "id": 357312,
    "type": "searchagent",
    "name": "anneliv@online.no",
    "email": "anneliv@online.no",
    "lat": 58.603336334229,
    "lon": 8.4159889221191,
    "radius": 1,
    "estatetype": "landbruk",
    "price_min": 2400000,
    "price_max": 3300000,
    "area_min": 290,
    "area_max": 390,
    "consent": "2019-06-29T21:17:49+02:00",
    "oppdragsaddresse": "Telemarksveien 190",
    "oppdragsnummer": 40190028,
    "agent": "Jan Terje Øygarden",
    "office": "Arendal"
  },
  {
    "id": 356796,
    "type": "searchagent",
    "name": "MAJA BRANOVACKI",
    "email": "lotesse@gmail.com",
    "lat": 58.490795135498,
    "lon": 8.8438806533813,
    "radius": 1,
    "estatetype": "enebolig",
    "price_min": 2600000,
    "price_max": 3500000,
    "area_min": 140,
    "area_max": 200,
    "consent": "2019-06-27T16:31:17+02:00",
    "oppdragsaddresse": "Skibvig Ringvei 2",
    "oppdragsnummer": 40190101,
    "agent": "Glenn J. Olsen",
    "office": "Arendal"
  },
  {
    "id": 356297,
    "type": "searchagent",
    "name": "Bjørn Johannessen",
    "email": "bjolek@online.no",
    "lat": 58.377059936523,
    "lon": 8.6764488220215,
    "radius": 1,
    "estatetype": "leilighet",
    "price_min": 1300000,
    "price_max": 1800000,
    "area_min": 60,
    "area_max": 100,
    "consent": "2019-06-25T18:13:20+02:00",
    "oppdragsaddresse": "Judehavskleiva 40",
    "oppdragsnummer": 40190050,
    "agent": "Glenn J. Olsen",
    "office": "Arendal"
  },