[{"id":319836,"type":"searchagent","name":"Monicabjac@gmail.com","email":"Monicabjac@gmail.com","lat":59.944179534912,"lon":10.852063179016,"radius":0.25,"estatetype":"boligtomt","price_min":1900000,"price_max":2700000,"area_min":20,"area_max":50,"consent":"2018-07-15T14:01:43+02:00","oppdragsaddresse":"Rådyrveien 1","oppdragsnummer":70180042,"agent":"Christopher Knut Soltvedt","office":"Kalbakken"},{"id":203931,"type":"searchagent","name":"Helen Knutsen","email":"Helenknutsen@hotmail.com","lat":59.933120727539,"lon":10.739749908447,"radius":0.25,"estatetype":"leilighet","price_min":3900000,"price_max":5200000,"area_min":40,"area_max":80,"consent":"2017-05-23T22:23:56+02:00","oppdragsaddresse":"Armauer Hansens gate 6 b","oppdragsnummer":19170149,"agent":"Helene Molle","office":"Sagene"},{"id":194085,"type":"searchagent","name":"Tarjei Tjønn","email":"t.s.tjonn@usit.uio.no","lat":59.911842346191,"lon":10.77055644989,"radius":0.25,"estatetype":"leilighet","price_min":5500000,"price_max":7200000,"area_min":80,"area_max":120,"consent":"2017-03-11T11:54:07+01:00","oppdragsaddresse":"Åkebergveien 12","oppdragsnummer":17170059,"agent":"Joachim Schala","office":"Carl Berner"},{"id":229057,"type":"searchagent","name":"terje lund","email":"terje.lund@larvik.kommune.no","lat":59.927928924561,"lon":10.761645317078,"radius":0.25,"estatetype":"leilighet","price_min":2200000,"price_max":3100000,"area_min":20,"area_max":50,"consent":"2017-10-11T09:09:50+02:00","oppdragsaddresse":"Hesselbergs gate 6 A","oppdragsnummer":16170234,"agent":"Torbjørn Skjelde","office":"Grünerløkka"},{"id":228385,"type":"searchagent","name":"Terje Lund","email":"Terje.lund@larvik.kommune.no","lat":59.932224273682,"lon":10.765467643738,"radius":0.25,"estatetype":"leilighet","price_min":2400000,"price_max":3300000,"area_min":30,"area_max":60,"consent":"2017-10-07T09:44:20+02:00","oppdragsaddresse":"Presidentgata 3 C","oppdragsnummer":16170297,"agent":"Bård Tisthamar","office":"Grünerløkka"},{"id":231500,"type":"searchagent","name":"Terje Lund","email":"Terje.lund@larvik.kommune.no","lat":59.93212890625,"lon":10.753851890564,"radius":0.25,"estatetype":"leilighet","price_min":2300000,"price_max":3100000,"area_min":20,"area_max":50,"consent":"2017-10-26T20:43:28+02:00","oppdragsaddresse":"Vøyensvingen 18D","oppdragsnummer":19170297,"agent":"Andreas Ulfsrud","office":"Sagene"},{"id":182027,"type":"searchagent","name":"Laila Glemmestad","email":"lkrreing@online.no","lat":59.93012,"lon":10.782,"radius":0.25,"estatetype":"leilighet","price_min":2900000,"price_max":3900000,"area_min":40,"area_max":80,"consent":"2016-10-09T12:32:56+02:00","oppdragsaddresse":"Olaf Schous vei 1","oppdragsnummer":17160232,"agent":"Vidar Tangstad","office":"Carl Berner"},{"id":167339,"type":"searchagent","name":"Astri Tretterud","email":"astri.olga@gmail.com","lat":59.92617,"lon":10.75632,"radius":0.25,"estatetype":"leilighet","price_min":4200000,"price_max":5600000,"area_min":70,"area_max":100,"consent":"2016-05-22T21:47:11+02:00","oppdragsaddresse":"Steenstrups gate 17 A","oppdragsnummer":19160109,"agent":"Erik Danielsen","office":"Sagene"},{"id":238021,"type":"searchagent","name":"Espen Jørgensen","email":"espjoe2@online.no","lat":59.929233551025,"lon":10.761388778687,"radius":0.25,"estatetype":"leilighet","price_min":2000000,"price_max":2800000,"area_min":20,"area_max":40,"consent":"2017-12-29T21:54:05+01:00","oppdragsaddresse":"Toftes gate 14A","oppdragsnummer":17170247,"agent":"Joachim Schala","office":"Carl Berner"},{"id":170269,"type":"searchagent","name":"Jan Tore Kortgård","email":"jtkortgard@live.no","lat":59.91838,"lon":10.7614,"radius":0.25,"estatetype":"leilighet","price_min":1000000,"price_max":1500000,"area_min":10,"area_max":40,"consent":"2016-06-23T16:56:36+02:00","oppdragsaddresse":"Trondheimsveien 5 D","oppdragsnummer":16160025,"agent":"Torbjørn Skjelde","office":"Grünerløkka"},{"id":187187,"type":"searchagent","name":"Christin Lundbye","email":"christinlundbye@yahoo.no","lat":59.90899,"lon":10.77844,"radius":0.25,"estatetype":"leilighet","price_min":1800000,"price_max":2400000,"area_min":10,"area_max":40,"consent":"2017-01-04T11:17:48+01:00","oppdragsaddresse":"Brinken 2B","oppdragsnummer":16160289,"agent":"Anders Sveen","office":"Grünerløkka"},{"id":200428,"type":"searchagent","name":"Christin Lundbye","email":"christinlundbye@yahoo.no","lat":59.939304351807,"lon":10.759993553162,"radius":0.25,"estatetype":"leilighet","price_min":2100000,"price_max":2900000,"area_min":10,"area_max":40,"consent":"2017-05-02T08:36:25+02:00","oppdragsaddresse":"Bentsebrugata 29 B","oppdragsnummer":32170060,"agent":"Erik Bryn Johannessen","office":"Torshov"},{"id":152131,"type":"searchagent","name":"Christin Lundbye","email":"christinlundbye@yahoo.no","lat":59.92583,"lon":10.77449,"radius":0.25,"estatetype":"leilighet","price_min":2000000,"price_max":2800000,"area_min":20,"area_max":50,"consent":"2016-09-02T09:28:05+02:00","oppdragsaddresse":"Dælenenggata 3 A","oppdragsnummer":17160188,"agent":"Marius M. Myren","office":"Carl Berner"},{"id":280905,"type":"searchagent","name":"Christin  Lundbye","email":"christinlundbye@yahoo.no","lat":59.946598052979,"lon":10.846061706543,"radius":0.25,"estatetype":"leilighet","price_min":2100000,"price_max":2900000,"area_min":30,"area_max":60,"consent":"2018-07-14T11:00:50+02:00","oppdragsaddresse":"Sletteløkka 18A","oppdragsnummer":17180084,"agent":"Steffen Usterud","office":"Carl Berner"},{"id":399535,"type":"searchagent","name":"Christin Lundbye","email":"christinlundbye@yahoo.no","lat":59.924304962158,"lon":10.766693115234,"radius":0.25,"estatetype":"leilighet","price_min":4300000,"price_max":5700000,"area_min":50,"area_max":80,"consent":"2020-03-02T11:07:54+01:00","oppdragsaddresse":"Gøteborggata 6 B","oppdragsnummer":16190136,"agent":"Bjørnar Mikkelsen","office":"Grünerløkka"},{"id":173675,"type":"searchagent","name":"Andree Bye Olaussen","email":"andreebo@hotmail.com","lat":59.9284,"lon":10.77907,"radius":0.25,"estatetype":"leilighet","price_min":2100000,"price_max":2900000,"area_min":50,"area_max":80,"consent":"2016-08-08T15:30:19+02:00","oppdragsaddresse":"Sinsenveien 5A","oppdragsnummer":17160155,"agent":"Vidar Tangstad","office":"Carl Berner"},{"id":397892,"type":"searchagent","name":"Ola Horge Hauge","email":"bjorghilde@jhbygg.no","lat":59.924304962158,"lon":10.766693115234,"radius":0.25,"estatetype":"leilighet","price_min":4300000,"price_max":5700000,"area_min":50,"area_max":80,"consent":"2020-02-18T10:26:09+01:00","oppdragsaddresse":"Gøteborggata 6 B","oppdragsnummer":16190136,"agent":"Bjørnar Mikkelsen","office":"Grünerløkka"},{"id":192453,"type":"searchagent","name":"Amalie Hauge","email":"amalie_sofie1@hotmail.com","lat":59.91257,"lon":10.77318,"radius":0.25,"estatetype":"leilighet","price_min":3800000,"price_max":5100000,"area_min":50,"area_max":80,"consent":"2017-02-21T19:34:53+01:00","oppdragsaddresse":"Eiriks gate 15","oppdragsnummer":19170019,"agent":"Erik Danielsen","office":"Sagene"},{"id":299208,"type":"searchagent","name":"Johnny Bui","email":"bui_johnny@yahoo.com","lat":59.949356079102,"lon":11.021922111511,"radius":0.25,"estatetype":"enebolig","price_min":10000000,"price_max":14000000,"area_min":270,"area_max":360,"consent":"2018-08-24T23:21:07+02:00","oppdragsaddresse":"Strømsalleen 2","oppdragsnummer":55170028,"agent":"Terje Rindal","office":"Bjørvika / Gamle Oslo"},{"id":172658,"type":"searchagent","name":"johnny bui","email":"bui_johnny@yahoo.com","lat":59.95984,"lon":10.86934,"radius":0.25,"estatetype":"enebolig","price_min":3500000,"price_max":4600000,"area_min":150,"area_max":210,"consent":"2016-08-02T22:46:11+02:00","oppdragsaddresse":"Lilloseterveien 19B Snr.1","oppdragsnummer":17160060,"agent":"Joachim Schala","office":"Carl Berner"},{"id":394398,"type":"searchagent","name":"Johnny Bui","email":"bui_johnny@yahoo.com","lat":59.924304962158,"lon":10.766693115234,"radius":0.25,"estatetype":"leilighet","price_min":4300000,"price_max":5700000,"area_min":50,"area_max":80,"consent":"2020-01-23T20:16:45+01:00","oppdragsaddresse":"Gøteborggata 6 B","oppdragsnummer":16190136,"agent":"Bjørnar Mikkelsen","office":"Grünerløkka"},{"id":238250,"type":"searchagent","name":"Steffi Van den Branden","email":"steffi.branden@gmail.com","lat":59.921398162842,"lon":10.763249397278,"radius":0.25,"estatetype":"leilighet","price_min":2700000,"price_max":3700000,"area_min":40,"area_max":70,"consent":"2018-01-01T18:05:34+01:00","oppdragsaddresse":"Schæffers gate 12C","oppdragsnummer":17170278,"agent":"Joachim Schala","office":"Carl Berner"},{"id":203090,"type":"searchagent","name":"Victoria Runde","email":"victoria.runde@gmail.com","lat":59.948471069336,"lon":10.765740394592,"radius":0.25,"estatetype":"leilighet","price_min":6000000,"price_max":7900000,"area_min":60,"area_max":100,"consent":"2017-05-19T12:32:40+02:00","oppdragsaddresse":"Nydalen Allé 9","oppdragsnummer":32170042,"agent":"Erik Bryn Johannessen","office":"Torshov"},{"id":169528,"type":"searchagent","name":"ole gunnar nikkinen","email":"ole.gunnar.nikkinen@gmail.com","lat":59.92831,"lon":10.77199,"radius":0.25,"estatetype":"leilighet","price_min":2200000,"price_max":3000000,"area_min":40,"area_max":80,"consent":"2016-06-15T08:00:02+02:00","oppdragsaddresse":"Christian Michelsens gate 37","oppdragsnummer":17160144,"agent":"Marius M. Myren","office":"Carl Berner"},{"id":298612,"type":"searchagent","name":"Karen Gjølmesli","email":"Karenchika@hotmail.com","lat":59.927837371826,"lon":10.758808135986,"radius":0.25,"estatetype":"leilighet","price_min":6200000,"price_max":8100000,"area_min":70,"area_max":120,"consent":"2018-08-23T16:32:44+02:00","oppdragsaddresse":"Thorvald Meyers gate 17 A","oppdragsnummer":16180148,"agent":"Steinar Hånes","office":"Grünerløkka"},{"id":277861,"type":"searchagent","name":"Karen  Gjølmesli","email":"Karenchika@hotmail.com","lat":59.92533493042,"lon":10.756495475769,"radius":0.25,"estatetype":"leilighet","price_min":4900000,"price_max":6500000,"area_min":70,"area_max":110,"consent":"2018-06-25T13:45:22+02:00","oppdragsaddresse":"Seilduksgata 5 A","oppdragsnummer":16180141,"agent":"Adrian Jensen","office":"Grünerløkka"},{"id":303032,"type":"searchagent","name":"Karen  Gjølmesli","email":"Karenchika@hotmail.com","lat":59.926166534424,"lon":10.767834663391,"radius":0.25,"estatetype":"leilighet","price_min":5500000,"price_max":7300000,"area_min":70,"area_max":110,"consent":"2018-08-30T13:49:27+02:00","oppdragsaddresse":"Malmøgata 4","oppdragsnummer":16180145,"agent":"Bjørnar Mikkelsen","office":"Grünerløkka"},{"id":303868,"type":"searchagent","name":"Karen  Gjølmesli","email":"karenchika@hotmail.com","lat":59.924385070801,"lon":10.76770401001,"radius":0.25,"estatetype":"leilighet","price_min":5400000,"price_max":7200000,"area_min":70,"area_max":120,"consent":"2018-09-01T14:34:36+02:00","oppdragsaddresse":"Fjellgata 1","oppdragsnummer":16180153,"agent":"Bjørnar Mikkelsen","office":"Grünerløkka"},{"id":392035,"type":"searchagent","name":"aasemarierannestad@gmail.com","email":"aasemarierannestad@gmail.com","lat":59.928112030029,"lon":10.767013549805,"radius":0.25,"estatetype":"leilighet","price_min":3300000,"price_max":4500000,"area_min":50,"area_max":80,"consent":"2020-01-18T11:49:55+01:00","oppdragsaddresse":"Fagerheimgata 9 C","oppdragsnummer":19170069,"agent":"Erik Danielsen","office":"Sagene"},{"id":188226,"type":"searchagent","name":"Christine  Sivertsen","email":"Frk.sivertsen@gmail.com","lat":59.92022,"lon":10.75794,"radius":0.25,"estatetype":"leilighet","price_min":4900000,"price_max":6400000,"area_min":60,"area_max":100,"consent":"2017-01-12T22:04:43+01:00","oppdragsaddresse":"Korsgata 24 B","oppdragsnummer":16160300,"agent":"Torbjørn Skjelde","office":"Grünerløkka"},{"id":89103,"type":"searchagent","name":"Svein Hagelund","email":"Svein.arne.hagelund@newsec.no","lat":59.923778533936,"lon":10.756962776184,"radius":0.25,"estatetype":"leilighet","price_min":3300000,"price_max":4500000,"area_min":30,"area_max":60,"consent":"2018-10-05T08:56:11+02:00","oppdragsaddresse":"Markveien 33 B","oppdragsnummer":66180148,"agent":"Oscar André Halsen","office":"Torshov"},{"id":390569,"type":"searchagent","name":"Sol","email":"solas8530@gmail.com","lat":60.187249770255,"lon":10.914123218463,"radius":80,"estatetype":"enebolig","price_min":2000000,"price_max":6100000,"area_min":120,"area_max":10001,"consent":"2020-01-07T09:27:22+01:00"},{"id":89743,"type":"searchagent","name":"Charlotte Kahn","email":"charlottekahnprivat@gmail.com","lat":59.958198547363,"lon":10.690228462219,"radius":0.25,"estatetype":"rekkehus","price_min":9000000,"price_max":14000000,"area_min":120,"area_max":180,"consent":"2018-11-01T12:32:59+01:00","oppdragsaddresse":"Skogryggveien 16K","oppdragsnummer":66180119,"agent":"Erik Bryn Johannessen","office":"Torshov"},{"id":258336,"type":"searchagent","name":"Trond-Erik Pentz Pedersen","email":"trond@blidefolk.no","lat":59.222969055176,"lon":10.919760704041,"radius":0.25,"estatetype":"enebolig","price_min":1700000,"price_max":2300000,"area_min":90,"area_max":130,"consent":"2018-04-16T10:01:43+02:00","oppdragsaddresse":"Lundestadtoppen 20","oppdragsnummer":70180023,"agent":"Terje Rindal","office":"Kalbakken"},{"id":389689,"type":"searchagent","name":"Janaarthanan Nagarasa​​","email":"Janaan.092@Hotmail.Com","lat":59.938089,"lon":10.756318,"radius":4,"estatetype":"enebolig,leilighet","price_min":2000000,"price_max":3000000,"area_min":40,"area_max":70,"consent":"2019-12-26T02:01:42+01:00"},{"id":173527,"type":"searchagent","name":"Pål Christian Riis","email":"post@eiendomsselskab.no","lat":59.92181,"lon":10.76484,"radius":0.25,"estatetype":"leilighet","price_min":3500000,"price_max":4700000,"area_min":80,"area_max":120,"consent":"2016-08-07T22:37:57+02:00","oppdragsaddresse":"Sofienberggata 31","oppdragsnummer":17160180,"agent":"Joachim Schala","office":"Carl Berner"},{"id":209764,"type":"searchagent","name":"Odd Roar Jakobsen","email":"oddroar.jakobsen@gmail.com","lat":59.929840087891,"lon":10.774926185608,"radius":0.25,"estatetype":"leilighet","price_min":4400000,"price_max":5800000,"area_min":60,"area_max":100,"consent":"2017-06-27T12:31:33+02:00","oppdragsaddresse":"Rosenhoffgata 7 E","oppdragsnummer":19170187,"agent":"Erik Danielsen","office":"Sagene"},{"id":89660,"type":"searchagent","name":"Reza Khusrawi","email":"reza.khusrawi@gmail.com","lat":59.949306488037,"lon":10.909423828125,"radius":0.25,"estatetype":"enebolig","price_min":3700000,"price_max":5000000,"area_min":70,"area_max":110,"consent":"2018-10-29T11:51:32+01:00","oppdragsaddresse":"Høgtunveien 4","oppdragsnummer":70180116,"agent":"Marius Wang","office":"Kalbakken"},{"id":386690,"type":"searchagent","name":"Mathilde Warvik","email":"Mathildewarvik@gmail.com","lat":59.927886962891,"lon":10.795346260071,"radius":0.25,"estatetype":"leilighet","price_min":2900000,"price_max":3900000,"area_min":20,"area_max":50,"consent":"2019-11-24T15:57:27+01:00","oppdragsaddresse":"Bøkkerveien 10 C","oppdragsnummer":17190200,"agent":"Kjerstin Falkum","office":"Carl Berner"},{"id":386649,"type":"searchagent","name":"Eline Bredesen","email":"Eline.bredesen@outlook.com","lat":59.929401397705,"lon":10.766652107239,"radius":0.25,"estatetype":"leilighet","price_min":4000000,"price_max":5300000,"area_min":50,"area_max":90,"consent":"2019-11-24T13:57:21+01:00","oppdragsaddresse":"Hans Barliens gate 1 E","oppdragsnummer":17190197,"agent":"Kjerstin Falkum","office":"Carl Berner"},{"id":236092,"type":"searchagent","name":"Kristine Pedersen","email":"kp_88@hotmail.com","lat":59.918891906738,"lon":10.766381263733,"radius":0.25,"estatetype":"leilighet","price_min":2200000,"price_max":3000000,"area_min":20,"area_max":50,"consent":"2017-11-26T21:42:25+01:00","oppdragsaddresse":"Siebkes gate 4 A","oppdragsnummer":55170011,"agent":"Terje Rindal","office":"Bjørvika / Gamle Oslo"},{"id":235923,"type":"searchagent","name":"Kristine Pedersen","email":"kp_88@hotmail.com","lat":59.927921295166,"lon":10.714119911194,"radius":0.25,"estatetype":"leilighet","price_min":2200000,"price_max":3000000,"area_min":20,"area_max":50,"consent":"2017-11-25T17:11:46+01:00","oppdragsaddresse":"Kirkeveien 57","oppdragsnummer":32170154,"agent":"Oscar André Halsen","office":"Torshov"},{"id":234454,"type":"searchagent","name":"Kristine Pedersen","email":"kp_88@hotmail.com","lat":59.925777435303,"lon":10.776321411133,"radius":0.25,"estatetype":"leilighet","price_min":1700000,"price_max":2400000,"area_min":20,"area_max":50,"consent":"2017-11-14T22:29:11+01:00","oppdragsaddresse":"Trondheimsveien 111D","oppdragsnummer":17170279,"agent":"Vidar Tangstad","office":"Carl Berner"},{"id":232928,"type":"searchagent","name":"Kristine  Pedersen","email":"kp_88@hotmail.com","lat":59.919414520264,"lon":10.765849113464,"radius":0.25,"estatetype":"leilighet","price_min":1700000,"price_max":2400000,"area_min":20,"area_max":40,"consent":"2017-11-05T09:35:05+01:00","oppdragsaddresse":"Lakkegata 68 B","oppdragsnummer":16170275,"agent":"Bjørnar Mikkelsen","office":"Grünerløkka"},{"id":335265,"type":"searchagent","name":"Malin Oestevik","email":"malinoestevik@gmail.com","lat":59.914131164551,"lon":10.769870758057,"radius":0.25,"estatetype":"leilighet","price_min":2800000,"price_max":3800000,"area_min":40,"area_max":70,"consent":"2019-04-16T10:28:06+02:00","oppdragsaddresse":"Sørligata 10 A","oppdragsnummer":66190016,"agent":"Eskil Næss Hagen","office":"Torshov"},{"id":180083,"type":"searchagent","name":"John Nikolaisen","email":"johnnikolaisen@hotmail.com","lat":59.92312,"lon":10.77344,"radius":0.25,"estatetype":"leilighet","price_min":2200000,"price_max":3000000,"area_min":30,"area_max":60,"consent":"2016-09-20T18:22:57+02:00","oppdragsaddresse":"Sars` gate 58","oppdragsnummer":16160232,"agent":"Torbjørn Skjelde","office":"Grünerløkka"},{"id":186258,"type":"searchagent","name":"John Nikolaisen","email":"johnnikolaisen@hotmail.com","lat":59.90738,"lon":10.78156,"radius":0.25,"estatetype":"leilighet","price_min":2000000,"price_max":2800000,"area_min":20,"area_max":50,"consent":"2016-12-05T15:53:39+01:00","oppdragsaddresse":"Enebakkveien 15","oppdragsnummer":17160284,"agent":"Torfinn Sørvang","office":"Carl Berner"},{"id":167871,"type":"searchagent","name":"Elisabeth Bjørnbekk","email":"ebjornbekk@gmail.com","lat":59.93879,"lon":10.75603,"radius":0.25,"estatetype":"leilighet","price_min":2800000,"price_max":3800000,"area_min":50,"area_max":90,"consent":"2016-05-29T08:08:03+02:00","oppdragsaddresse":"Grimstadgata 23 A","oppdragsnummer":19160119,"agent":"Zehra Catak","office":"Sagene"},{"id":256829,"type":"searchagent","name":"Hannah Cooper","email":"hannahfcooper@gmail.com","lat":59.935169219971,"lon":10.75193977356,"radius":0.25,"estatetype":"leilighet","price_min":4800000,"price_max":6300000,"area_min":70,"area_max":120,"consent":"2018-04-10T18:52:49+02:00","oppdragsaddresse":"Stockfleths gate 50","oppdragsnummer":32170197,"agent":"Oscar André Halsen","office":"Torshov"},{"id":190063,"type":"searchagent","name":"Hannah  Cooper","email":"hannahfcooper@gmail.com","lat":59.93845,"lon":10.75681,"radius":0.25,"estatetype":"leilighet","price_min":4700000,"price_max":6200000,"area_min":60,"area_max":100,"consent":"2017-01-30T22:23:50+01:00","oppdragsaddresse":"Mogata 24 B","oppdragsnummer":19170008,"agent":"Zehra Catak","office":"Sagene"},{"id":266399,"type":"searchagent","name":"Hannah Cooper","email":"hannahfcooper@gmail.com","lat":59.940505981445,"lon":10.764391899109,"radius":0.25,"estatetype":"leilighet","price_min":4200000,"price_max":5600000,"area_min":50,"area_max":90,"consent":"2018-05-19T09:33:53+02:00","oppdragsaddresse":"Brochmanns gate 12A","oppdragsnummer":17180108,"agent":"Joachim Schala","office":"Carl Berner"},{"id":174976,"type":"searchagent","name":"Marcello  Falch","email":"marcello.falch@outlook.com","lat":59.92181,"lon":10.76484,"radius":0.25,"estatetype":"leilighet","price_min":3500000,"price_max":4700000,"area_min":80,"area_max":120,"consent":"2016-08-15T14:13:22+02:00","oppdragsaddresse":"Sofienberggata 31","oppdragsnummer":17160180,"agent":"Joachim Schala","office":"Carl Berner"},{"id":179511,"type":"searchagent","name":"Marcello Falch","email":"marcello.falch@outlook.com","lat":59.92503,"lon":10.76137,"radius":0.25,"estatetype":"leilighet","price_min":4000000,"price_max":5300000,"area_min":100,"area_max":150,"consent":"2016-09-17T10:13:50+02:00","oppdragsaddresse":"Toftes gate 56A","oppdragsnummer":17160223,"agent":"Joachim Schala","office":"Carl Berner"},{"id":202465,"type":"searchagent","name":"Ida Angvik","email":"idaangvik@hotmail.com","lat":59.910915374756,"lon":10.777800559998,"radius":0.25,"estatetype":"leilighet","price_min":3600000,"price_max":4700000,"area_min":60,"area_max":100,"consent":"2017-05-14T21:48:42+02:00","oppdragsaddresse":"Kjølberggata 15A","oppdragsnummer":17170112,"agent":"Vidar Tangstad","office":"Carl Berner"},{"id":190518,"type":"searchagent","name":"Steffen Hofseth","email":"steffenhofseth@gmail.com","lat":59.92763,"lon":10.76048,"radius":0.25,"estatetype":"leilighet","price_min":3800000,"price_max":5000000,"area_min":50,"area_max":80,"consent":"2017-02-04T23:18:40+01:00","oppdragsaddresse":"Hesselbergsgate 7","oppdragsnummer":16170015,"agent":"Bjørnar Mikkelsen","office":"Grünerløkka"},{"id":274545,"type":"searchagent","name":"Le'Von Warr","email":"levon.warr@gmail.com","lat":59.949306488037,"lon":10.909423828125,"radius":0.25,"estatetype":"enebolig","price_min":4200000,"price_max":5600000,"area_min":70,"area_max":110,"consent":"2018-06-14T12:04:54+02:00","oppdragsaddresse":"Høgtunveien 4","oppdragsnummer":70180015,"agent":"Marius Wang","office":"Kalbakken"},{"id":169548,"type":"searchagent","name":"Le'Von Warr","email":"levon.warr@gmail.com","lat":59.92831,"lon":10.77199,"radius":0.25,"estatetype":"leilighet","price_min":2200000,"price_max":3000000,"area_min":40,"area_max":80,"consent":"2016-06-15T12:41:23+02:00","oppdragsaddresse":"Christian Michelsens gate 37","oppdragsnummer":17160144,"agent":"Marius M. Myren","office":"Carl Berner"},{"id":255733,"type":"searchagent","name":"Le'Von Warr","email":"levon.warr@gmail.com","lat":59.222969055176,"lon":10.919760704041,"radius":0.25,"estatetype":"enebolig","price_min":1700000,"price_max":2300000,"area_min":90,"area_max":130,"consent":"2018-04-06T22:18:48+02:00","oppdragsaddresse":"Lundestadtoppen 20","oppdragsnummer":70180023,"agent":"Terje Rindal","office":"Kalbakken"},{"id":354647,"type":"searchagent","name":"Truls  Tandberg","email":"Truls.tandberg@gmail.com","lat":59.939014434814,"lon":10.761840820312,"radius":0.25,"estatetype":"leilighet","price_min":4700000,"price_max":6200000,"area_min":70,"area_max":110,"consent":"2019-06-19T13:39:42+02:00","oppdragsaddresse":"Ålesundgata 3B","oppdragsnummer":19190176,"agent":"Zehra Catak","office":"Sagene"},{"id":148785,"type":"searchagent","name":"Truls  Tandberg","email":"Truls.tandberg@gmail.com","lat":59.94251,"lon":10.77071,"radius":0.25,"estatetype":"leilighet","price_min":3100000,"price_max":4200000,"area_min":50,"area_max":90,"consent":"2016-08-15T18:46:47+02:00","oppdragsaddresse":"Sandakerveien 79","oppdragsnummer":16160165,"agent":"Adrian Jensen","office":"Grünerløkka"},{"id":175886,"type":"searchagent","name":"Rageb Petterson","email":"ragebpetterson@hotmail.com","lat":59.92438,"lon":10.7463,"radius":0.25,"estatetype":"leilighet","price_min":3100000,"price_max":4200000,"area_min":40,"area_max":70,"consent":"2016-08-22T08:37:25+02:00","oppdragsaddresse":"Fredrikke Qvams gate 9","oppdragsnummer":16160185,"agent":"Adrian Jensen","office":"Grünerløkka"},{"id":249079,"type":"searchagent","name":"Egill Mebust","email":"Egill.mebust@hotmail.com","lat":59.92151260376,"lon":10.771866798401,"radius":0.25,"estatetype":"leilighet","price_min":2300000,"price_max":3200000,"area_min":30,"area_max":60,"consent":"2018-03-03T11:54:42+01:00","oppdragsaddresse":"Sars gate 31 F","oppdragsnummer":16180031,"agent":"Steinar Hånes","office":"Grünerløkka"},{"id":260967,"type":"searchagent","name":"Egill Mebust","email":"Egill.mebust@hotmail.com","lat":59.918842315674,"lon":10.749176979065,"radius":0.25,"estatetype":"leilighet","price_min":1700000,"price_max":2400000,"area_min":10,"area_max":40,"consent":"2018-04-25T11:42:58+02:00","oppdragsaddresse":"Deichmans gate 15","oppdragsnummer":70180013,"agent":"Christopher Knut Soltvedt","office":"Kalbakken"},{"id":156547,"type":"searchagent","name":"Silje Hammersland","email":"silje.iversen@gmail.com","lat":59.94428,"lon":10.85408,"radius":0.25,"estatetype":"leilighet","price_min":2400000,"price_max":3300000,"area_min":70,"area_max":110,"consent":"2016-09-22T12:51:36+02:00","oppdragsaddresse":"Rådyrveien 5","oppdragsnummer":19160230,"agent":"Eskil Næss Hagen","office":"Sagene"},{"id":178829,"type":"searchagent","name":"Silje Hammersland","email":"Silje.iversen@gmail.com","lat":59.91872,"lon":10.76533,"radius":0.25,"estatetype":"leilighet","price_min":2700000,"price_max":3700000,"area_min":50,"area_max":90,"consent":"2016-09-12T00:00:02+02:00","oppdragsaddresse":"Lakkegata 71","oppdragsnummer":17160185,"agent":"Joachim Schala","office":"Carl Berner"},{"id":173698,"type":"searchagent","name":"Alexander  Kunev","email":"alex_steen_kunev@hotmail.com","lat":59.94907,"lon":10.79463,"radius":0.25,"estatetype":"leilighet","price_min":2600000,"price_max":3500000,"area_min":40,"area_max":70,"consent":"2016-08-08T17:20:40+02:00","oppdragsaddresse":"Kjelsåsveien 49 H","oppdragsnummer":19160195,"agent":"Erik Danielsen","office":"Sagene"},{"id":168525,"type":"searchagent","name":"Alexander Kunev","email":"alex_steen_kunev@hotmail.com","lat":59.92056,"lon":10.73275,"radius":0.25,"estatetype":"leilighet","price_min":2000000,"price_max":2800000,"area_min":30,"area_max":60,"consent":"2016-06-06T10:59:15+02:00","oppdragsaddresse":"Welhavens Gate 9","oppdragsnummer":16160125,"agent":"Anders Sveen","office":"Grünerløkka"},{"id":242950,"type":"searchagent","name":"Erik-Andre Bergan","email":"erik.andre.bergan@gmail.com","lat":59.929462432861,"lon":10.77552986145,"radius":0.25,"estatetype":"leilighet","price_min":4800000,"price_max":6300000,"area_min":60,"area_max":100,"consent":"2018-01-31T11:32:16+01:00","oppdragsaddresse":"Rosenhoffgata 7 A","oppdragsnummer":32180003,"agent":"Erik Bryn Johannessen","office":"Torshov"},{"id":90658,"type":"searchagent","name":"Bente Larsen","email":"blaarsen@gmail.com","lat":59.916980743408,"lon":10.710070610046,"radius":0.25,"estatetype":"leilighet","price_min":4200000,"price_max":5500000,"area_min":50,"area_max":90,"consent":"2019-01-13T10:28:19+01:00","oppdragsaddresse":"Bygdøy allé 35","oppdragsnummer":66180167,"agent":"Oscar André Halsen","office":"Torshov"},{"id":296755,"type":"searchagent","name":"Astrid Mannion-Gibson","email":"astridmannion@gmail.com","lat":59.942268371582,"lon":10.824650764465,"radius":0.25,"estatetype":"tomannsbolig","price_min":7000000,"price_max":9100000,"area_min":120,"area_max":180,"consent":"2018-08-20T21:40:43+02:00","oppdragsaddresse":"Brobekkveien 20","oppdragsnummer":70180066,"agent":"Christopher Knut Soltvedt","office":"Kalbakken"},{"id":91022,"type":"searchagent","name":"Jens Bjelke-Holtermann","email":"Jens@hellerud-tannlege.no","lat":59.945693969727,"lon":11.047503471375,"radius":0.25,"estatetype":"enebolig","price_min":4700000,"price_max":4700000,"area_min":90,"area_max":130,"consent":"2019-01-29T01:22:17+01:00","oppdragsaddresse":"Hanna Ruuds veg 4","oppdragsnummer":70190013,"agent":"Jannik Holm","office":"Kalbakken"},{"id":141122,"type":"searchagent","name":"Are Stokstad","email":"are.stokstad@amedia.no","lat":null,"lon":10.76426,"radius":0.25,"estatetype":"leilighet","price_min":4500000,"price_max":4500000,"area_min":60,"area_max":90,"consent":"2016-06-15T22:20:46+02:00","oppdragsaddresse":"Sannergata 17 A","oppdragsnummer":16160119,"agent":"Bjørnar Mikkelsen","office":"Grünerløkka"},{"id":173854,"type":"searchagent","name":"paal sanni","email":"phs@projectcontrol.no","lat":59.90706,"lon":10.77199,"radius":0.25,"estatetype":"leilighet","price_min":600000,"price_max":1000000,"area_min":20,"area_max":40,"consent":"2016-08-09T11:05:04+02:00","oppdragsaddresse":"Arupsgate 22","oppdragsnummer":17160183,"agent":"Torfinn Sørvang","office":"Carl Berner"},{"id":276471,"type":"searchagent","name":"hevi hasan","email":"bayar2005@hotmail.com","lat":59.953350067139,"lon":10.864414215088,"radius":0.25,"estatetype":"leilighet","price_min":1900000,"price_max":2700000,"area_min":30,"area_max":60,"consent":"2018-06-19T17:03:59+02:00","oppdragsaddresse":"Rødtvetveien 71","oppdragsnummer":70180048,"agent":"Christopher Knut Soltvedt","office":"Kalbakken"},{"id":280636,"type":"searchagent","name":"hevi hasan","email":"bayar2005@hotmail.com","lat":59.946598052979,"lon":10.846061706543,"radius":0.25,"estatetype":"leilighet","price_min":2100000,"price_max":2900000,"area_min":30,"area_max":60,"consent":"2018-07-12T05:38:37+02:00","oppdragsaddresse":"Sletteløkka 18A","oppdragsnummer":17180084,"agent":"Steffen Usterud","office":"Carl Berner"},{"id":91184,"type":"searchagent","name":"Somasunderam Anpalagan","email":"anpalakans@gmail.com","lat":59.930122375488,"lon":10.782002449036,"radius":0.25,"estatetype":"leilighet","price_min":2900000,"price_max":3900000,"area_min":40,"area_max":70,"consent":"2018-11-18T17:22:33+01:00","oppdragsaddresse":"Olaf Schous vei 1","oppdragsnummer":19180285,"agent":"Erik Danielsen","office":"Sagene"},{"id":89977,"type":"searchagent","name":"somasunderam anpalakan","email":"anpalakans@gmail.com","lat":59.92041015625,"lon":10.749585151672,"radius":0.25,"estatetype":"leilighet","price_min":2900000,"price_max":3900000,"area_min":40,"area_max":70,"consent":"2018-11-19T23:34:06+01:00","oppdragsaddresse":"Fredensborgveien 41 B","oppdragsnummer":66180170,"agent":"Lene Brekken","office":"Torshov"},{"id":376113,"type":"searchagent","name":"Monica Watterud","email":"monica.watterud@gmail.com","lat":59.924304962158,"lon":10.766693115234,"radius":0.25,"estatetype":"leilighet","price_min":4300000,"price_max":5700000,"area_min":50,"area_max":80,"consent":"2019-09-24T10:58:44+02:00","oppdragsaddresse":"Gøteborggata 6 B","oppdragsnummer":16190136,"agent":"Bjørnar Mikkelsen","office":"Grünerløkka"},{"id":276698,"type":"searchagent","name":"Vibeke Austad","email":"Vibe.austad@gmail.com","lat":59.913509368896,"lon":10.724235534668,"radius":0.25,"estatetype":"leilighet","price_min":3800000,"price_max":5000000,"area_min":30,"area_max":60,"consent":"2018-06-20T10:59:10+02:00","oppdragsaddresse":"Huitfeldts gate 18","oppdragsnummer":17180118,"agent":"Kjerstin Falkum","office":"Carl Berner"},{"id":187698,"type":"searchagent","name":"Karen Rusten","email":"Karen.rusten@hotmail.com","lat":59.91629,"lon":10.75502,"radius":0.25,"estatetype":"leilighet","price_min":3100000,"price_max":4200000,"area_min":30,"area_max":60,"consent":"2017-01-08T19:38:30+01:00","oppdragsaddresse":"Calmeyersgate 13F","oppdragsnummer":17160288,"agent":"Joachim Schala","office":"Carl Berner"},{"id":258481,"type":"searchagent","name":"Tim Finset","email":"finsettim@gmail.com","lat":59.222969055176,"lon":10.919760704041,"radius":0.25,"estatetype":"enebolig","price_min":1700000,"price_max":2300000,"area_min":90,"area_max":130,"consent":"2018-04-16T14:29:56+02:00","oppdragsaddresse":"Lundestadtoppen 20","oppdragsnummer":70180023,"agent":"Terje Rindal","office":"Kalbakken"},{"id":260115,"type":"searchagent","name":"Frederick A. Reiersen","email":"frederick.a.reiersen@gmail.com","lat":59.929443359375,"lon":10.783647537231,"radius":0.25,"estatetype":"leilighet","price_min":3600000,"price_max":4700000,"area_min":70,"area_max":110,"consent":"2018-04-22T17:43:13+02:00","oppdragsaddresse":"Rødstuveien 2","oppdragsnummer":17180074,"agent":"Steffen Usterud","office":"Carl Berner"},{"id":331636,"type":"searchagent","name":"Håvard Aamelfot","email":"haamelfot@gmail.com","lat":58.98664855957,"lon":9.6546020507812,"radius":0.25,"estatetype":"hyttetomt","price_min":300000,"price_max":600000,"area_min":0,"area_max":10,"consent":"2019-04-03T14:24:27+02:00","oppdragsaddresse":"Åstadheia 78","oppdragsnummer":70190029,"agent":"Jannik Holm","office":"Kalbakken"},{"id":172946,"type":"searchagent","name":"Håkon Stensrud","email":"hakon.stensrud94@gmail.com","lat":59.95984,"lon":10.86934,"radius":0.25,"estatetype":"enebolig","price_min":3500000,"price_max":4600000,"area_min":150,"area_max":210,"consent":"2016-08-04T16:09:17+02:00","oppdragsaddresse":"Lilloseterveien 19B Snr.1","oppdragsnummer":17160060,"agent":"Joachim Schala","office":"Carl Berner"},{"id":174868,"type":"searchagent","name":"Halfdan Tøndel","email":"htoendel@gmail.com","lat":59.92924,"lon":10.74811,"radius":0.25,"estatetype":"leilighet","price_min":3500000,"price_max":4600000,"area_min":50,"area_max":90,"consent":"2016-08-14T22:08:55+02:00","oppdragsaddresse":"Fougstads gate 43","oppdragsnummer":19160198,"agent":"Helene Molle","office":"Sagene"},{"id":350781,"type":"searchagent","name":"Lars-Anders Lorvik","email":"lalo@labolo.no","lat":59.99633026123,"lon":11.023202896118,"radius":0.25,"estatetype":"boligtomt","price_min":2200000,"price_max":3000000,"area_min":0,"area_max":10,"consent":"2019-06-06T22:14:18+02:00","oppdragsaddresse":"Brånåsveien 26","oppdragsnummer":70190019,"agent":"Jannik Holm","office":"Kalbakken"},{"id":165020,"type":"searchagent","name":"Adele Røssnes","email":"adeleroessnes@gmail.com","lat":59.93921,"lon":10.76078,"radius":0.25,"estatetype":"leilighet","price_min":3700000,"price_max":5000000,"area_min":60,"area_max":100,"consent":"2016-11-22T18:03:08+01:00","oppdragsaddresse":"Gjøvikgata 3 A","oppdragsnummer":16160258,"agent":"Bjørnar Mikkelsen","office":"Grünerløkka"},{"id":277853,"type":"searchagent","name":"Ingvild Veddeng","email":"invedde@online.no","lat":59.943855285645,"lon":10.780739784241,"radius":0.25,"estatetype":"leilighet","price_min":4200000,"price_max":5600000,"area_min":70,"area_max":100,"consent":"2018-06-25T13:19:32+02:00","oppdragsaddresse":"Storoveien 31","oppdragsnummer":19180168,"agent":"Zehra Catak","office":"Sagene"},{"id":170170,"type":"searchagent","name":"Ingeborg Austrått","email":"ingeborg.austratt@gmail.com","lat":59.91051,"lon":10.7802,"radius":0.25,"estatetype":"leilighet","price_min":5300000,"price_max":6900000,"area_min":70,"area_max":110,"consent":"2016-06-22T13:44:24+02:00","oppdragsaddresse":"Normannsgate 34 B","oppdragsnummer":16160149,"agent":"Anders Sveen","office":"Grünerløkka"},{"id":356644,"type":"searchagent","name":"Mailinn To","email":"mailinn2@gmail.com","lat":59.913948059082,"lon":10.72324848175,"radius":0.25,"estatetype":"leilighet","price_min":7600000,"price_max":9900000,"area_min":80,"area_max":130,"consent":"2019-06-26T22:34:48+02:00","oppdragsaddresse":"Hansteens gate 12A","oppdragsnummer":16190121,"agent":"Anders Sveen","office":"Grünerløkka"},{"id":356647,"type":"searchagent","name":"Mailinn To","email":"Mailinn2@gmail.com","lat":59.913948059082,"lon":10.72324848175,"radius":0.25,"estatetype":"leilighet","price_min":7600000,"price_max":9900000,"area_min":80,"area_max":130,"consent":"2019-06-26T22:35:28+02:00","oppdragsaddresse":"Hansteens gate 12A","oppdragsnummer":16190121,"agent":"Anders Sveen","office":"Grünerløkka"},{"id":231596,"type":"searchagent","name":"jarle kristoffersen","email":"jarle.kristoffersen@iss.no","lat":59.927341461182,"lon":10.751169204712,"radius":0.25,"estatetype":"leilighet","price_min":3100000,"price_max":4200000,"area_min":40,"area_max":70,"consent":"2017-10-27T14:31:40+02:00","oppdragsaddresse":"Maridalsveien 39 B","oppdragsnummer":17170213,"agent":"Kjerstin Falkum","office":"Carl Berner"},{"id":186076,"type":"searchagent","name":"Celina Flatner","email":"Crf@doga.no","lat":59.90738,"lon":10.78156,"radius":0.25,"estatetype":"leilighet","price_min":2000000,"price_max":2800000,"area_min":20,"area_max":50,"consent":"2016-12-01T16:38:43+01:00","oppdragsaddresse":"Enebakkveien 15","oppdragsnummer":17160284,"agent":"Torfinn Sørvang","office":"Carl Berner"},{"id":262986,"type":"searchagent","name":"Ida Silseth Bakken","email":"silsethbakken@gmail.com","lat":59.911144256592,"lon":10.776823043823,"radius":0.25,"estatetype":"leilighet","price_min":3800000,"price_max":5100000,"area_min":60,"area_max":90,"consent":"2018-05-02T22:28:04+02:00","oppdragsaddresse":"Jens Bjelkes gate 98","oppdragsnummer":17180081,"agent":"Steffen Usterud","office":"Carl Berner"},{"id":264488,"type":"searchagent","name":"Ida Silseth Bakken","email":"silsethbakken@gmail.com","lat":59.907230377197,"lon":10.773633003235,"radius":0.25,"estatetype":"leilighet","price_min":4000000,"price_max":5300000,"area_min":60,"area_max":100,"consent":"2018-05-09T20:03:14+02:00","oppdragsaddresse":"Schweigaards gate 77 A","oppdragsnummer":55180043,"agent":"Robin Rodahl","office":"Bjørvika / Gamle Oslo"},{"id":307585,"type":"searchagent","name":"Glenn Sundhagen","email":"glenn.sundhagen@gmail.com","lat":59.949356079102,"lon":11.021922111511,"radius":0.25,"estatetype":"enebolig","price_min":10000000,"price_max":14000000,"area_min":270,"area_max":360,"consent":"2018-09-11T14:13:39+02:00","oppdragsaddresse":"Strømsalleen 2","oppdragsnummer":55170028,"agent":"Terje Rindal","office":"Bjørvika / Gamle Oslo"},{"id":355616,"type":"searchagent","name":"Haakon Andre Wibe","email":"haakonwibe@gmail.com","lat":59.92985534668,"lon":10.797013282776,"radius":0.25,"estatetype":"leilighet","price_min":3100000,"price_max":4200000,"area_min":30,"area_max":60,"consent":"2019-06-23T22:55:33+02:00","oppdragsaddresse":"Lørenveien  56 A","oppdragsnummer":66190106,"agent":"Oscar André Halsen","office":"Torshov"},{"id":336355,"type":"searchagent","name":"Daniel Stogen","email":"danielstigen@gmail.com","lat":59.94319152832,"lon":10.773260116577,"radius":0.25,"estatetype":"leilighet","price_min":2700000,"price_max":3600000,"area_min":30,"area_max":60,"consent":"2019-04-23T11:21:22+02:00","oppdragsaddresse":"Nordlandsgata 11","oppdragsnummer":66190046,"agent":"Eskil Næss Hagen","office":"Torshov"},{"id":170965,"type":"searchagent","name":"Per Ims","email":"pki@oros.no","lat":59.90706,"lon":10.77199,"radius":0.25,"estatetype":"leilighet","price_min":900000,"price_max":1400000,"area_min":20,"area_max":40,"consent":"2016-07-08T12:34:01+02:00","oppdragsaddresse":"Arups gate 22","oppdragsnummer":17160148,"agent":"Torfinn Sørvang","office":"Carl Berner"},{"id":364944,"type":"searchagent","name":"Mads Røslie","email":"Roeslie@gmail.com","lat":59.906978607178,"lon":10.780898094177,"radius":0.25,"estatetype":"leilighet","price_min":3700000,"price_max":5000000,"area_min":50,"area_max":90,"consent":"2019-08-12T14:00:06+02:00","oppdragsaddresse":"Dalehaugen 2","oppdragsnummer":19190216,"agent":"Helene Molle","office":"Sagene"},{"id":361608,"type":"searchagent","name":"Stine Bjørshol","email":"stine_b_1993@hotmail.com","lat":59.908893585205,"lon":10.779221534729,"radius":0.25,"estatetype":"leilighet","price_min":3300000,"price_max":4500000,"area_min":40,"area_max":70,"consent":"2019-07-28T11:17:41+02:00","oppdragsaddresse":"Hølandsgata 1A","oppdragsnummer":55190102,"agent":"Henrik Stråkander","office":"Bjørvika / Gamle Oslo"},{"id":363986,"type":"searchagent","name":"Andrea","email":"Andreabjg@hotmail.com","lat":59.928249470453,"lon":10.763965409986,"radius":0.85,"estatetype":"leilighet","price_min":3000000,"price_max":3600000,"area_min":40,"area_max":60,"consent":"2019-08-08T10:30:22+02:00"},{"id":314666,"type":"searchagent","name":"Baoyan Bai","email":"bby54@hotmail.com","lat":59.947849273682,"lon":10.766267776489,"radius":0.25,"estatetype":"leilighet","price_min":4500000,"price_max":5900000,"area_min":60,"area_max":100,"consent":"2018-10-15T21:45:24+02:00","oppdragsaddresse":"Nydalen allé 25","oppdragsnummer":17180203,"agent":"Torfinn Sørvang","office":"Carl Berner"},{"id":350759,"type":"searchagent","name":"Ella Fiske","email":"ella.fiske@aerum.kommune.no","lat":59.941673278809,"lon":10.771536827087,"radius":0.25,"estatetype":"leilighet","price_min":3100000,"price_max":4100000,"area_min":40,"area_max":70,"consent":"2019-06-06T20:54:55+02:00","oppdragsaddresse":"Grefsenveien 6 D","oppdragsnummer":66190072,"agent":"Eskil Næss Hagen","office":"Torshov"},{"id":363238,"type":"searchagent","name":"Ella Fiske","email":"ella.fiske@aerum.kommune.no","lat":59.924304962158,"lon":10.766693115234,"radius":0.25,"estatetype":"leilighet","price_min":4200000,"price_max":5600000,"area_min":50,"area_max":80,"consent":"2019-08-05T17:50:30+02:00","oppdragsaddresse":"Gøteborggata 6 B","oppdragsnummer":16190136,"agent":"Bjørnar Mikkelsen","office":"Grünerløkka"},{"id":363224,"type":"searchagent","name":"Elise Hagen","email":"Elise.hagen@gmail.com","lat":59.928127288818,"lon":10.76190662384,"radius":0.25,"estatetype":"leilighet","price_min":2600000,"price_max":3500000,"area_min":30,"area_max":60,"consent":"2019-08-05T17:15:22+02:00","oppdragsaddresse":"Hesselbergsgate 8 C","oppdragsnummer":19190201,"agent":"Helene Molle","office":"Sagene"},{"id":351528,"type":"searchagent","name":"Jonas Solvang","email":"jonassolvangs@gmail.com","lat":59.944713592529,"lon":10.77751159668,"radius":0.25,"estatetype":"leilighet","price_min":2400000,"price_max":3300000,"area_min":20,"area_max":50,"consent":"2019-06-10T14:23:46+02:00","oppdragsaddresse":"Grefsenveien 51","oppdragsnummer":19190023,"agent":"Rebecca M. Madland","office":"Sagene"},{"id":362304,"type":"searchagent","name":"Henrik Medby","email":"meds.henrik@gmail.com","lat":59.925197601318,"lon":10.736916542053,"radius":0.25,"estatetype":"leilighet","price_min":2600000,"price_max":3500000,"area_min":20,"area_max":50,"consent":"2019-07-31T12:48:29+02:00","oppdragsaddresse":"Colletts gate 10 B","oppdragsnummer":66190123,"agent":"Oscar André Halsen","office":"Torshov"},{"id":362906,"type":"searchagent","name":"Marte Eik","email":"Marte.eik@live.no","lat":59.92253112793,"lon":10.773582458496,"radius":0.25,"estatetype":"leilighet","price_min":2500000,"price_max":3400000,"area_min":20,"area_max":50,"consent":"2019-08-04T09:16:36+02:00","oppdragsaddresse":"Monrads gate 21 E","oppdragsnummer":16190125,"agent":"Bjørnar Mikkelsen","office":"Grünerløkka"},{"id":351316,"type":"searchagent","name":"Tore Henriksen Marki","email":"Toreerher@hotmail.com","lat":59.837593078613,"lon":10.789443016052,"radius":0.25,"estatetype":"leilighet","price_min":2600000,"price_max":3500000,"area_min":70,"area_max":110,"consent":"2019-06-09T13:31:07+02:00","oppdragsaddresse":"Ravnåsveien 47 B","oppdragsnummer":70190128,"agent":"Alexander Vu Tran","office":"Kalbakken"},{"id":362938,"type":"searchagent","name":"Tore Marki","email":"Toreerher@hotmail.com","lat":59.928176879883,"lon":10.775192260742,"radius":0.25,"estatetype":"leilighet","price_min":3000000,"price_max":4100000,"area_min":30,"area_max":60,"consent":"2019-08-04T14:26:40+02:00","oppdragsaddresse":"Jørgen Løvlands gate 3","oppdragsnummer":17190116,"agent":"Truls Martin Nygaard","office":"Carl Berner"},{"id":360049,"type":"searchagent","name":"Amanda Sagedal","email":"amanda.a.sagedal@gmail.com","lat":59.90266418457,"lon":10.776487350464,"radius":0.25,"estatetype":"leilighet","price_min":2800000,"price_max":3800000,"area_min":30,"area_max":60,"consent":"2019-07-15T09:06:31+02:00","oppdragsaddresse":"Konows gate 28B","oppdragsnummer":55190103,"agent":"Henrik Stråkander","office":"Bjørvika / Gamle Oslo"},{"id":360047,"type":"searchagent","name":"Amanda Sagedal","email":"amanda.a.sagedal@gmail.com","lat":59.908222198486,"lon":10.772933959961,"radius":0.25,"estatetype":"leilighet","price_min":2800000,"price_max":3800000,"area_min":40,"area_max":70,"consent":"2019-07-15T09:05:23+02:00","oppdragsaddresse":"Klostergata 6","oppdragsnummer":55190096,"agent":"Henrik Jensen","office":"Bjørvika / Gamle Oslo"},{"id":362366,"type":"searchagent","name":"Helene Olerud","email":"helene@olerud.net","lat":59.924304962158,"lon":10.766693115234,"radius":0.25,"estatetype":"leilighet","price_min":4200000,"price_max":5600000,"area_min":50,"area_max":80,"consent":"2019-07-31T17:25:57+02:00","oppdragsaddresse":"Gøteborggata 6 B","oppdragsnummer":16190136,"agent":"Bjørnar Mikkelsen","office":"Grünerløkka"},{"id":359570,"type":"searchagent","name":"Henrik  Ek Hayes","email":"henrikekhayes@gmail.com","lat":59.908222198486,"lon":10.772933959961,"radius":0.25,"estatetype":"leilighet","price_min":2800000,"price_max":3800000,"area_min":40,"area_max":70,"consent":"2019-07-10T01:36:00+02:00","oppdragsaddresse":"Klostergata 6","oppdragsnummer":55190096,"agent":"Henrik Jensen","office":"Bjørvika / Gamle Oslo"},{"id":361643,"type":"searchagent","name":"Henrik Ek Hayes","email":"henrikekhayes@gmail.com","lat":59.911956787109,"lon":10.762949943542,"radius":0.25,"estatetype":"leilighet","price_min":2800000,"price_max":3800000,"area_min":30,"area_max":60,"consent":"2019-07-28T16:53:52+02:00","oppdragsaddresse":"Mandalls gate 5C","oppdragsnummer":17190101,"agent":"Truls Martin Nygaard","office":"Carl Berner"},{"id":360515,"type":"searchagent","name":"Henrik Hayes","email":"henrikekhayes@gmail.com","lat":59.913673400879,"lon":10.764862060547,"radius":0.25,"estatetype":"leilighet","price_min":3000000,"price_max":4000000,"area_min":40,"area_max":70,"consent":"2019-07-18T13:43:24+02:00","oppdragsaddresse":"Norbygata 50A","oppdragsnummer":55190056,"agent":"Henrik Jensen","office":"Bjørvika / Gamle Oslo"},{"id":90919,"type":"searchagent","name":"Ann Kristin Gresaker","email":"annk.gresaker@gmail.com","lat":59.928066253662,"lon":10.760068893433,"radius":0.25,"estatetype":"leilighet","price_min":6000000,"price_max":7900000,"area_min":90,"area_max":140,"consent":"2019-01-24T11:56:09+01:00","oppdragsaddresse":"Toftes gate 25K","oppdragsnummer":16180271,"agent":"Bård Tisthamar","office":"Grünerløkka"},{"id":90552,"type":"searchagent","name":"Ann Kristin  Gresaker","email":"annk.gresaker@gmail.com","lat":59.935691833496,"lon":10.75500869751,"radius":0.25,"estatetype":"leilighet","price_min":6500000,"price_max":8500000,"area_min":70,"area_max":110,"consent":"2019-01-06T20:29:28+01:00","oppdragsaddresse":"Thurmanns gate 3","oppdragsnummer":19180295,"agent":"Zehra Catak","office":"Sagene"},{"id":337949,"type":"searchagent","name":"Ann Kristin  Gresaker","email":"annk.gresaker@gmail.com","lat":59.911476135254,"lon":10.779287338257,"radius":0.25,"estatetype":"leilighet","price_min":5200000,"price_max":6800000,"area_min":70,"area_max":110,"consent":"2019-04-28T10:38:54+02:00","oppdragsaddresse":"Brinken 29 B","oppdragsnummer":19190098,"agent":"Zehra Catak","office":"Sagene"},{"id":89282,"type":"searchagent","name":"Ann Kristin Gresaker","email":"annk.gresaker@gmail.com","lat":59.939281463623,"lon":10.762093544006,"radius":0.25,"estatetype":"leilighet","price_min":6000000,"price_max":7900000,"area_min":80,"area_max":120,"consent":"2018-10-13T19:52:54+02:00","oppdragsaddresse":"Ålesundgata 3D","oppdragsnummer":16180225,"agent":"Bjørnar Mikkelsen","office":"Grünerløkka"},{"id":312834,"type":"searchagent","name":"Ann Kristin  Gresaker","email":"annk.gresaker@gmail.com","lat":59.925712585449,"lon":10.761551856995,"radius":0.25,"estatetype":"leilighet","price_min":7600000,"price_max":9900000,"area_min":120,"area_max":170,"consent":"2018-09-30T11:25:48+02:00","oppdragsaddresse":"Toftes gate 50 A","oppdragsnummer":19180238,"agent":"Zehra Catak","office":"Sagene"},{"id":362314,"type":"searchagent","name":"Ann Kristin  Gresaker","email":"annk.gresaker@gmail.com","lat":59.94063949585,"lon":10.821738243103,"radius":0.25,"estatetype":"rekkehus","price_min":7200000,"price_max":9300000,"area_min":100,"area_max":150,"consent":"2019-07-31T13:33:18+02:00","oppdragsaddresse":"Krokliveien 65A","oppdragsnummer":19190218,"agent":"Marcus Egeland","office":"Sagene"},{"id":350019,"type":"searchagent","name":"Preben Stubberud","email":"Prebenstubberud@gmail.com","lat":59.931983947754,"lon":10.758869171143,"radius":0.25,"estatetype":"leilighet","price_min":2600000,"price_max":3500000,"area_min":30,"area_max":60,"consent":"2019-06-04T15:27:35+02:00","oppdragsaddresse":"Sandakerveien 10N","oppdragsnummer":19190133,"agent":"Erik Danielsen","office":"Sagene"},{"id":359560,"type":"searchagent","name":"Preben Stubberud","email":"Prebenstubberud@gmail.com","lat":59.91051864624,"lon":10.775201797485,"radius":0.25,"estatetype":"leilighet","price_min":2700000,"price_max":3600000,"area_min":30,"area_max":60,"consent":"2019-07-09T22:15:49+02:00","oppdragsaddresse":"Sverres gate 3A","oppdragsnummer":55190107,"agent":"Henrik Stråkander","office":"Bjørvika / Gamle Oslo"},{"id":362156,"type":"searchagent","name":"Preben Stubberud","email":"Prebenstubberud@gmail.com","lat":59.911956787109,"lon":10.762949943542,"radius":0.25,"estatetype":"leilighet","price_min":2800000,"price_max":3800000,"area_min":30,"area_max":60,"consent":"2019-07-30T17:57:32+02:00","oppdragsaddresse":"Mandalls gate 5C","oppdragsnummer":17190101,"agent":"Truls Martin Nygaard","office":"Carl Berner"},{"id":342917,"type":"searchagent","name":"Christine Chiu","email":"c_christine83@hotmail.com","lat":59.938049316406,"lon":10.75644493103,"radius":0.25,"estatetype":"leilighet","price_min":5600000,"price_max":7400000,"area_min":60,"area_max":100,"consent":"2019-05-14T13:20:47+02:00","oppdragsaddresse":"Maridalsveien 160 a","oppdragsnummer":19190113,"agent":"Marcus Egeland","office":"Sagene"},{"id":203386,"type":"searchagent","name":"Lars Gimmestad","email":"largim@hotmail.com","lat":59.936542510986,"lon":10.771116256714,"radius":0.25,"estatetype":"leilighet","price_min":2900000,"price_max":3900000,"area_min":30,"area_max":60,"consent":"2017-05-21T11:13:03+02:00","oppdragsaddresse":"Agathe Grøndahls gate 22","oppdragsnummer":19170136,"agent":"Erik Danielsen","office":"Sagene"},{"id":357204,"type":"searchagent","name":"Anders Holtet","email":"andersholtet@gmail.com","lat":59.926410675049,"lon":10.724902153015,"radius":0.25,"estatetype":"leilighet","price_min":4400000,"price_max":5900000,"area_min":50,"area_max":90,"consent":"2019-06-29T02:05:53+02:00","oppdragsaddresse":"Rosenborggata 10","oppdragsnummer":17180265,"agent":"Kjerstin Falkum","office":"Carl Berner"},{"id":361799,"type":"searchagent","name":"Anders Holtet","email":"andersholtet@gmail.com","lat":59.93989944458,"lon":10.750580787659,"radius":0.25,"estatetype":"leilighet","price_min":4500000,"price_max":5900000,"area_min":60,"area_max":100,"consent":"2019-07-29T11:25:17+02:00","oppdragsaddresse":"Uelands gate 73","oppdragsnummer":19190186,"agent":"Zehra Catak","office":"Sagene"},{"id":361961,"type":"searchagent","name":"Anders Holtet","email":"andersholtet@gmail.com","lat":59.928329467773,"lon":10.686800003052,"radius":0.25,"estatetype":"leilighet","price_min":3300000,"price_max":4400000,"area_min":40,"area_max":80,"consent":"2019-07-29T21:07:52+02:00","oppdragsaddresse":"Skøyenveien 63","oppdragsnummer":17190122,"agent":"Vidar Tangstad","office":"Carl Berner"},{"id":361958,"type":"searchagent","name":"Terje Dybdahl","email":"terje@detgodeselskab.no","lat":59.928176879883,"lon":10.775192260742,"radius":0.25,"estatetype":"leilighet","price_min":3000000,"price_max":4100000,"area_min":30,"area_max":60,"consent":"2019-07-29T20:56:23+02:00","oppdragsaddresse":"Jørgen Løvlands gate 3","oppdragsnummer":17190116,"agent":"Truls Martin Nygaard","office":"Carl Berner"},{"id":360454,"type":"searchagent","name":"Sondre Flateraaker","email":"sondre@flateraaker.com","lat":59.916858673096,"lon":10.753765106201,"radius":0.25,"estatetype":"leilighet","price_min":2900000,"price_max":3900000,"area_min":30,"area_max":60,"consent":"2019-07-17T18:09:30+02:00","oppdragsaddresse":"Osterhaus gate 12C","oppdragsnummer":55190105,"agent":"Henrik Jensen","office":"Bjørvika / Gamle Oslo"},{"id":361862,"type":"searchagent","name":"Sondre Flateraaker","email":"Sondre@flateraaker.com","lat":59.928176879883,"lon":10.775192260742,"radius":0.25,"estatetype":"leilighet","price_min":3000000,"price_max":4100000,"area_min":30,"area_max":60,"consent":"2019-07-29T13:39:02+02:00","oppdragsaddresse":"Jørgen Løvlands gate 3","oppdragsnummer":17190116,"agent":"Truls Martin Nygaard","office":"Carl Berner"},{"id":308774,"type":"searchagent","name":"Kjerstigmail.com Bratseth","email":"kjersti.bratseth@gmail.com","lat":59.942306518555,"lon":10.762244224548,"radius":0.25,"estatetype":"leilighet","price_min":2900000,"price_max":3900000,"area_min":50,"area_max":80,"consent":"2018-09-16T16:59:59+02:00","oppdragsaddresse":"Sarpsborggata 16 D","oppdragsnummer":19180228,"agent":"Carl Uthus","office":"Sagene"},{"id":285248,"type":"searchagent","name":"Kjersti Bratseth","email":"Kjersti.bratseth@gmail.com","lat":59.932956695557,"lon":10.766467094421,"radius":0.25,"estatetype":"leilighet","price_min":2700000,"price_max":3600000,"area_min":30,"area_max":60,"consent":"2018-08-05T11:17:21+02:00","oppdragsaddresse":"Torshovgata 15 F","oppdragsnummer":66180087,"agent":"Lene Brekken","office":"Torshov"},{"id":309531,"type":"searchagent","name":"Kjersti Brastseth","email":"Kjersti.bratseth@gmail.com","lat":59.93265914917,"lon":10.76132774353,"radius":0.25,"estatetype":"leilighet","price_min":2800000,"price_max":3800000,"area_min":30,"area_max":60,"consent":"2018-09-18T22:01:12+02:00","oppdragsaddresse":"Oskar Braatens gate 9","oppdragsnummer":66180121,"agent":"Oscar André Halsen","office":"Torshov"},{"id":361764,"type":"searchagent","name":"Kjerstio Bratseth","email":"kjersti.bratseth@gmail.com","lat":59.91088104248,"lon":10.744054794312,"radius":0.25,"estatetype":"leilighet","price_min":3000000,"price_max":4100000,"area_min":30,"area_max":60,"consent":"2019-07-29T09:43:02+02:00","oppdragsaddresse":"Kirkegata 19 A","oppdragsnummer":16190162,"agent":"Bjørnar Mikkelsen","office":"Grünerløkka"},{"id":361251,"type":"searchagent","name":"Rikke Hannevik","email":"Rikkehannevik@gmail.com","lat":59.944316864014,"lon":10.76317024231,"radius":0.25,"estatetype":"leilighet","price_min":3400000,"price_max":4500000,"area_min":40,"area_max":80,"consent":"2019-07-24T22:45:40+02:00","oppdragsaddresse":"Maridalsveien 225A","oppdragsnummer":55190100,"agent":"Linus Juell","office":"Bjørvika / Gamle Oslo"},{"id":361687,"type":"searchagent","name":"Prashanth  Sivanesasingam","email":"presh-92@hotmail.com","lat":59.928291320801,"lon":10.761384010315,"radius":0.25,"estatetype":"leilighet","price_min":2900000,"price_max":3900000,"area_min":40,"area_max":70,"consent":"2019-07-28T20:49:32+02:00","oppdragsaddresse":"Toftes gate 20 A","oppdragsnummer":66190077,"agent":"Eskil Næss Hagen","office":"Torshov"},{"id":361689,"type":"searchagent","name":"Prasanth Sivanesasingam","email":"presh-92@hotmail.com","lat":59.941680908203,"lon":10.774905204773,"radius":0.25,"estatetype":"leilighet","price_min":2700000,"price_max":3600000,"area_min":20,"area_max":50,"consent":"2019-07-28T20:58:15+02:00","oppdragsaddresse":"Nils Huus` gate 18","oppdragsnummer":66190121,"agent":"Lene Brekken","office":"Torshov"},{"id":361695,"type":"searchagent","name":"Prashanth Sivanesasingam","email":"presh-92@hotmail.com","lat":59.91088104248,"lon":10.744054794312,"radius":0.25,"estatetype":"leilighet","price_min":3000000,"price_max":4100000,"area_min":30,"area_max":60,"consent":"2019-07-28T21:03:25+02:00","oppdragsaddresse":"Kirkegata 19 A","oppdragsnummer":16190162,"agent":"Bjørnar Mikkelsen","office":"Grünerløkka"},{"id":361611,"type":"searchagent","name":"Kristin  Gressberg","email":"Kgressberg@gmail.com","lat":59.927932739258,"lon":10.757327079773,"radius":0.25,"estatetype":"leilighet","price_min":2300000,"price_max":3200000,"area_min":20,"area_max":50,"consent":"2019-07-28T11:38:46+02:00","oppdragsaddresse":"Øvrefoss 8 E","oppdragsnummer":16190170,"agent":"Anders Sveen","office":"Grünerløkka"},{"id":360015,"type":"searchagent","name":"Jean paul Carreteiro","email":"Jposlo@hotmail.com","lat":59.836353302002,"lon":10.873042106628,"radius":0.25,"estatetype":"fritidseiendom","price_min":1900000,"price_max":2700000,"area_min":70,"area_max":110,"consent":"2019-07-14T15:12:13+02:00","oppdragsaddresse":"Enebakkveien 695","oppdragsnummer":19190195,"agent":"Carl Uthus","office":"Sagene"},{"id":361420,"type":"searchagent","name":"Jean paul Carreteiro","email":"Jposlo@hotmail.com","lat":59.836353302002,"lon":10.873042106628,"radius":0.25,"estatetype":"fritidseiendom","price_min":1900000,"price_max":2700000,"area_min":70,"area_max":110,"consent":"2019-07-26T01:59:25+02:00","oppdragsaddresse":"Enebakkveien 695","oppdragsnummer":19190195,"agent":"Carl Uthus","office":"Sagene"},{"id":361243,"type":"searchagent","name":"Liv H  Høgseth","email":"liv@hogz.net","lat":59.942031860352,"lon":10.774322509766,"radius":0.25,"estatetype":"leilighet","price_min":2900000,"price_max":3900000,"area_min":40,"area_max":70,"consent":"2019-07-24T21:07:29+02:00","oppdragsaddresse":"Frederik Glads gate 19","oppdragsnummer":66190107,"agent":"Eskil Næss Hagen","office":"Torshov"},{"id":361164,"type":"searchagent","name":"nazir ibrahim","email":"nazirsalih@hotmail.com","lat":61.91198348999,"lon":9.3605928421021,"radius":0.25,"estatetype":"næring","price_min":8000000,"price_max":10400000,"area_min":1500,"area_max":3000,"consent":"2019-07-24T09:50:18+02:00","oppdragsaddresse":"Gudbrandsdalsvegen 225","oppdragsnummer":70190086,"agent":"Jannik Holm","office":"Kalbakken"},{"id":361153,"type":"searchagent","name":"Solomon Hantal","email":"sele2382@gmail.com","lat":59.928329467773,"lon":10.686800003052,"radius":0.25,"estatetype":"leilighet","price_min":3300000,"price_max":4400000,"area_min":40,"area_max":80,"consent":"2019-07-24T07:53:48+02:00","oppdragsaddresse":"Skøyenveien 63","oppdragsnummer":17190122,"agent":"Vidar Tangstad","office":"Carl Berner"},{"id":360420,"type":"searchagent","name":"Lars Eivind Jensvoll","email":"larse.jensvoll@outlook.com","lat":59.929439544678,"lon":10.73380947113,"radius":0.25,"estatetype":"leilighet","price_min":2500000,"price_max":3400000,"area_min":20,"area_max":50,"consent":"2019-07-17T14:23:13+02:00","oppdragsaddresse":"Vidars gate 4","oppdragsnummer":55190075,"agent":"Henrik Jensen","office":"Bjørvika / Gamle Oslo"},{"id":359525,"type":"searchagent","name":"Jone  Bø","email":"jone21.02@hotmail.com","lat":59.932472229004,"lon":10.781829833984,"radius":0.25,"estatetype":"leilighet","price_min":3000000,"price_max":4000000,"area_min":40,"area_max":80,"consent":"2019-07-09T17:35:54+02:00","oppdragsaddresse":"Bjørn Stallares vei 27","oppdragsnummer":55190106,"agent":"Henrik Jensen","office":"Bjørvika / Gamle Oslo"},{"id":361023,"type":"searchagent","name":"Jone Omdal Bø","email":"jone21.02@hotmail.com","lat":59.942031860352,"lon":10.774322509766,"radius":0.25,"estatetype":"leilighet","price_min":2900000,"price_max":3900000,"area_min":40,"area_max":70,"consent":"2019-07-23T09:29:12+02:00","oppdragsaddresse":"Frederik Glads gate 19","oppdragsnummer":66190107,"agent":"Eskil Næss Hagen","office":"Torshov"},{"id":361019,"type":"searchagent","name":"Marit Bjørgan Thorkildsen","email":"bjorgan.marit@gmail.com","lat":59.927909851074,"lon":10.748462677002,"radius":0.25,"estatetype":"leilighet","price_min":4600000,"price_max":6100000,"area_min":60,"area_max":100,"consent":"2019-07-23T09:15:04+02:00","oppdragsaddresse":"Waldemar Thranes Gate 68 C","oppdragsnummer":16190150,"agent":"Anders Sveen","office":"Grünerløkka"},{"id":360989,"type":"searchagent","name":"Gaute Steen","email":"veto.sailing@gmail.com","lat":59.931781768799,"lon":10.735066413879,"radius":0.25,"estatetype":"leilighet","price_min":3100000,"price_max":4200000,"area_min":30,"area_max":70,"consent":"2019-07-22T20:06:30+02:00","oppdragsaddresse":"Vidars gate 20 b","oppdragsnummer":19190214,"agent":"Marcus Egeland","office":"Sagene"},{"id":360986,"type":"searchagent","name":"Thomas Joa","email":"Thomas.joa@arctic.com","lat":59.940063476562,"lon":10.764269828796,"radius":0.25,"estatetype":"leilighet","price_min":2500000,"price_max":3400000,"area_min":20,"area_max":50,"consent":"2019-07-22T19:50:28+02:00","oppdragsaddresse":"Brochmanns gate 7","oppdragsnummer":19190208,"agent":"Carl Uthus","office":"Sagene"},{"id":359577,"type":"searchagent","name":"Tove Jacobsen","email":"tovemetteja@gmail.com","lat":59.914505004883,"lon":10.78157043457,"radius":0.25,"estatetype":"leilighet","price_min":2600000,"price_max":3500000,"area_min":20,"area_max":50,"consent":"2019-07-10T08:52:52+02:00","oppdragsaddresse":"Sons gate 11","oppdragsnummer":19190193,"agent":"Carl Uthus","office":"Sagene"},{"id":360792,"type":"searchagent","name":"Tove Jacobsen","email":"tovemetteja@gmail.com","lat":59.916858673096,"lon":10.753765106201,"radius":0.25,"estatetype":"leilighet","price_min":2900000,"price_max":3900000,"area_min":30,"area_max":60,"consent":"2019-07-21T18:31:02+02:00","oppdragsaddresse":"Osterhaus gate 12C","oppdragsnummer":55190105,"agent":"Henrik Jensen","office":"Bjørvika / Gamle Oslo"},{"id":326817,"type":"searchagent","name":"Monica Sofie Larsen","email":"larsen3108@gmail.com","lat":59.902549743652,"lon":10.770469665527,"radius":0.25,"estatetype":"leilighet","price_min":2700000,"price_max":3600000,"area_min":30,"area_max":60,"consent":"2019-03-18T09:35:20+01:00","oppdragsaddresse":"Ekebergveien 3B","oppdragsnummer":55190019,"agent":"Robin Rodahl","office":"Bjørvika / Gamle Oslo"},{"id":120888,"type":"searchagent","name":"Monica Larsen","email":"larsen3108@gmail.com","lat":59.924873352051,"lon":10.758023262024,"radius":0.25,"estatetype":"leilighet","price_min":3600000,"price_max":3600000,"area_min":20,"area_max":50,"consent":"2019-02-28T14:27:34+01:00","oppdragsaddresse":"Helgesens gate 12E","oppdragsnummer":55190037,"agent":"Marita Friis Stensland","office":"Bjørvika / Gamle Oslo"},{"id":324550,"type":"searchagent","name":"Monica  Larsen","email":"Larsen3108@gmail.com","lat":59.944713592529,"lon":10.77751159668,"radius":0.25,"estatetype":"leilighet","price_min":2100000,"price_max":2900000,"area_min":20,"area_max":40,"consent":"2019-03-10T12:02:37+01:00","oppdragsaddresse":"Grefsenveien 51","oppdragsnummer":66190027,"agent":"Lene Brekken","office":"Torshov"},{"id":337769,"type":"searchagent","name":"Monica  Larsen","email":"Larsen3108@gmail.com","lat":59.94654083252,"lon":10.768836975098,"radius":0.25,"estatetype":"leilighet","price_min":3000000,"price_max":4000000,"area_min":30,"area_max":60,"consent":"2019-04-27T07:57:32+02:00","oppdragsaddresse":"Fernanda Nissens gate 2B","oppdragsnummer":17190039,"agent":"Joachim Schala","office":"Carl Berner"},{"id":360771,"type":"searchagent","name":"Monica Larsen","email":"larsen3108@gmail.com","lat":59.901279449463,"lon":10.773978233337,"radius":0.25,"estatetype":"leilighet","price_min":3200000,"price_max":4300000,"area_min":30,"area_max":60,"consent":"2019-07-21T14:07:01+02:00","oppdragsaddresse":"Ekebergveien 19 J","oppdragsnummer":55190088,"agent":"Henrik Jensen","office":"Bjørvika / Gamle Oslo"},{"id":255582,"type":"searchagent","name":"Ella Fiske","email":"ella.fiske@baerum.kommune.no","lat":59.903495788574,"lon":10.774448394775,"radius":0.25,"estatetype":"leilighet","price_min":2800000,"price_max":3800000,"area_min":50,"area_max":80,"consent":"2018-04-06T13:54:20+02:00","oppdragsaddresse":"Alnagata 16","oppdragsnummer":17170032,"agent":"Kjerstin Falkum","office":"Carl Berner"},{"id":90459,"type":"searchagent","name":"Ella Fiske","email":"ella.fiske@baerum.kommune.no","lat":59.936050415039,"lon":10.764494895935,"radius":0.25,"estatetype":"leilighet","price_min":2500000,"price_max":3400000,"area_min":20,"area_max":50,"consent":"2019-01-01T17:45:09+01:00","oppdragsaddresse":"Trøndergata 8","oppdragsnummer":19180303,"agent":"Zehra Catak","office":"Sagene"},{"id":282971,"type":"searchagent","name":"Ella Fiske","email":"ella.fiske@baerum.kommune.no","lat":59.918380737305,"lon":10.761395454407,"radius":0.25,"estatetype":"leilighet","price_min":2000000,"price_max":2800000,"area_min":40,"area_max":70,"consent":"2018-07-30T14:29:05+02:00","oppdragsaddresse":"Trondheimsveien 5 D","oppdragsnummer":16180120,"agent":"Bjørnar Mikkelsen","office":"Grünerløkka"},{"id":312254,"type":"searchagent","name":"Ella Fiske","email":"ella.fiske@baerum.kommune.no","lat":59.927677154541,"lon":10.760261535645,"radius":0.25,"estatetype":"leilighet","price_min":3100000,"price_max":4200000,"area_min":40,"area_max":70,"consent":"2018-09-27T21:26:50+02:00","oppdragsaddresse":"Hesselbergs gate 5A","oppdragsnummer":66180091,"agent":"Oscar André Halsen","office":"Torshov"},{"id":308093,"type":"searchagent","name":"Ella Fiske","email":"ella.fiske@baerum.kommune.no","lat":59.924468994141,"lon":10.77202796936,"radius":0.25,"estatetype":"leilighet","price_min":3100000,"price_max":4200000,"area_min":30,"area_max":60,"consent":"2018-09-13T19:53:21+02:00","oppdragsaddresse":"Tromsøgata 13 A","oppdragsnummer":17180173,"agent":"Kjerstin Falkum","office":"Carl Berner"},{"id":280858,"type":"searchagent","name":"Ella Fiske","email":"ella.fiske@baerum.kommune.no","lat":59.929462432861,"lon":10.77552986145,"radius":0.25,"estatetype":"leilighet","price_min":2600000,"price_max":3500000,"area_min":20,"area_max":50,"consent":"2018-07-13T17:29:09+02:00","oppdragsaddresse":"Rosenhoffgata 7A","oppdragsnummer":17180089,"agent":"Steffen Usterud","office":"Carl Berner"},{"id":271104,"type":"searchagent","name":"Ella Fiske","email":"ella.fiske@baerum.kommune.no","lat":59.903495788574,"lon":10.774448394775,"radius":0.25,"estatetype":"leilighet","price_min":3100000,"price_max":4200000,"area_min":50,"area_max":80,"consent":"2018-06-03T14:09:05+02:00","oppdragsaddresse":"Alnagata 16","oppdragsnummer":17180110,"agent":"Vidar Tangstad","office":"Carl Berner"},{"id":358090,"type":"searchagent","name":"Ella Fiske","email":"ella.fiske@baerum.kommune.no","lat":59.91051864624,"lon":10.775201797485,"radius":0.25,"estatetype":"leilighet","price_min":2700000,"price_max":3600000,"area_min":30,"area_max":60,"consent":"2019-07-02T20:57:42+02:00","oppdragsaddresse":"Sverres gate 3A","oppdragsnummer":55190107,"agent":"Henrik Stråkander","office":"Bjørvika / Gamle Oslo"},{"id":312260,"type":"searchagent","name":"Ella Fiske","email":"ella.fiske@baerum.kommune.no","lat":59.926105499268,"lon":10.777068138123,"radius":0.25,"estatetype":"leilighet","price_min":3000000,"price_max":4100000,"area_min":50,"area_max":80,"consent":"2018-09-27T21:32:34+02:00","oppdragsaddresse":"Grenseveien 14","oppdragsnummer":17180190,"agent":"Joakim Torp","office":"Carl Berner"},{"id":360675,"type":"searchagent","name":"Ella Fiske","email":"ella.fiske@baerum.kommune.no","lat":59.908222198486,"lon":10.772933959961,"radius":0.25,"estatetype":"leilighet","price_min":2800000,"price_max":3800000,"area_min":40,"area_max":70,"consent":"2019-07-20T22:33:49+02:00","oppdragsaddresse":"Klostergata 6","oppdragsnummer":55190096,"agent":"Henrik Jensen","office":"Bjørvika / Gamle Oslo"},{"id":360335,"type":"searchagent","name":"Marinette Hexeberg","email":"marinettehexeberg@live.no","lat":59.916858673096,"lon":10.753765106201,"radius":0.25,"estatetype":"leilighet","price_min":2900000,"price_max":3900000,"area_min":30,"area_max":60,"consent":"2019-07-16T23:35:26+02:00","oppdragsaddresse":"Osterhaus gate 12C","oppdragsnummer":55190105,"agent":"Henrik Jensen","office":"Bjørvika / Gamle Oslo"},{"id":360613,"type":"searchagent","name":"André Gulbrandsen","email":"a.j.gulbrandsen@gmail.com","lat":59.916465759277,"lon":10.794518470764,"radius":0.25,"estatetype":"leilighet","price_min":2800000,"price_max":3800000,"area_min":30,"area_max":60,"consent":"2019-07-19T18:47:30+02:00","oppdragsaddresse":"Malerhaugveien 32 B","oppdragsnummer":66190053,"agent":"Lene Brekken","office":"Torshov"},{"id":360616,"type":"searchagent","name":"André Gulbrandsen","email":"a.j.gulbrandsen@gmail.com","lat":59.916465759277,"lon":10.794518470764,"radius":0.25,"estatetype":"leilighet","price_min":2800000,"price_max":3800000,"area_min":30,"area_max":60,"consent":"2019-07-19T18:49:31+02:00","oppdragsaddresse":"Malerhaugveien 32 B","oppdragsnummer":66190053,"agent":"Lene Brekken","office":"Torshov"},{"id":360590,"type":"searchagent","name":"Marius Bråten","email":"Mini.br145@gmail.con","lat":59.908222198486,"lon":10.772933959961,"radius":0.25,"estatetype":"leilighet","price_min":2800000,"price_max":3800000,"area_min":40,"area_max":70,"consent":"2019-07-19T13:18:26+02:00","oppdragsaddresse":"Klostergata 6","oppdragsnummer":55190096,"agent":"Henrik Jensen","office":"Bjørvika / Gamle Oslo"},{"id":360486,"type":"searchagent","name":"Sigurd Ziegler","email":"sigurdziegler@gmail.com","lat":59.9337849,"lon":10.7632413,"radius":5,"estatetype":"enebolig,leilighet","price_min":4000000,"price_max":6000000,"area_min":70,"area_max":10001,"consent":"2019-07-18T09:05:43+02:00"},{"id":360485,"type":"searchagent","name":"Fredrik Hillestad","email":"fredrik.hillestad@gmail.com","lat":59.916858673096,"lon":10.753765106201,"radius":0.25,"estatetype":"leilighet","price_min":2900000,"price_max":3900000,"area_min":30,"area_max":60,"consent":"2019-07-18T08:13:40+02:00","oppdragsaddresse":"Osterhaus gate 12C","oppdragsnummer":55190105,"agent":"Henrik Jensen","office":"Bjørvika / Gamle Oslo"},{"id":360436,"type":"searchagent","name":"Krister Klemmetsen","email":"Krister@teamklemmetsen.no","lat":59.943462371826,"lon":10.951899528503,"radius":0.25,"estatetype":"næringstomt","price_min":40000000,"price_max":60000000,"area_min":0,"area_max":10,"consent":"2019-07-17T16:41:34+02:00","oppdragsaddresse":"Haneborgveien 7","oppdragsnummer":70190068,"agent":"Jannik Holm","office":"Kalbakken"},{"id":360317,"type":"searchagent","name":"Carl Ferdinand Knutsen","email":"carlfknutsen@gmail.com","lat":59.93868637085,"lon":10.760395050049,"radius":0.25,"estatetype":"leilighet","price_min":2800000,"price_max":3800000,"area_min":30,"area_max":60,"consent":"2019-07-16T20:18:13+02:00","oppdragsaddresse":"Bentsebrugata 27C","oppdragsnummer":19190194,"agent":"Erik Danielsen","office":"Sagene"},{"id":357628,"type":"searchagent","name":"Øyvind Starheim","email":"oyv.starheim@gmail.com","lat":59.927177429199,"lon":10.751655578613,"radius":0.25,"estatetype":"leilighet","price_min":2800000,"price_max":3800000,"area_min":40,"area_max":70,"consent":"2019-07-01T12:26:45+02:00","oppdragsaddresse":"Hauchs gate 6A","oppdragsnummer":66190103,"agent":"Oscar André Halsen","office":"Torshov"},{"id":360192,"type":"searchagent","name":"Øyvind Starheim","email":"oyv.starheim@gmail.com","lat":59.913673400879,"lon":10.764862060547,"radius":0.25,"estatetype":"leilighet","price_min":3000000,"price_max":4000000,"area_min":40,"area_max":70,"consent":"2019-07-16T07:50:07+02:00","oppdragsaddresse":"Norbygata 50A","oppdragsnummer":55190056,"agent":"Henrik Jensen","office":"Bjørvika / Gamle Oslo"},{"id":360132,"type":"searchagent","name":"maria skog","email":"mariachristianeskog@gmail.com","lat":59.913566589355,"lon":10.765789031982,"radius":0.25,"estatetype":"leilighet","price_min":2600000,"price_max":3500000,"area_min":40,"area_max":70,"consent":"2019-07-15T15:38:12+02:00","oppdragsaddresse":"Urtegata 45","oppdragsnummer":55190085,"agent":"Henrik Jensen","office":"Bjørvika / Gamle Oslo"},{"id":360092,"type":"searchagent","name":"Herman Sørensen","email":"Herm.ls@hotmail.com","lat":59.920346,"lon":10.759296,"radius":5,"estatetype":"leilighet","price_min":0,"price_max":3300000,"area_min":25,"area_max":10001,"consent":"2019-07-15T12:21:43+02:00"},{"id":359966,"type":"searchagent","name":"Thy Brenna","email":"nththy@hotmail.com","lat":59.932456970215,"lon":11.072994232178,"radius":0.25,"estatetype":"leilighet","price_min":2100000,"price_max":2900000,"area_min":50,"area_max":90,"consent":"2019-07-13T15:56:34+02:00","oppdragsaddresse":"Fergevegen 4","oppdragsnummer":17190097,"agent":"Truls Martin Nygaard","office":"Carl Berner"},{"id":353317,"type":"searchagent","name":"Arnhild Sandbakken","email":"Arnhild.sandbakken@gmail.com","lat":59.913078308105,"lon":10.7678565979,"radius":0.25,"estatetype":"leilighet","price_min":2900000,"price_max":3900000,"area_min":50,"area_max":80,"consent":"2019-06-15T18:40:23+02:00","oppdragsaddresse":"Enerhauggata 3","oppdragsnummer":19190088,"agent":"Zehra Catak","office":"Sagene"},{"id":118950,"type":"searchagent","name":"Arnhild Sandbakken","email":"arnhild.sandbakken@gmail.com","lat":59.922386169434,"lon":10.774371147156,"radius":0.25,"estatetype":"leilighet","price_min":4100000,"price_max":4100000,"area_min":40,"area_max":70,"consent":"2019-02-24T14:54:14+01:00","oppdragsaddresse":"Helgesens gate 76D","oppdragsnummer":19190045,"agent":"Erik Danielsen","office":"Sagene"},{"id":353845,"type":"searchagent","name":"Arnhild Sandbakken","email":"arnhild.sandbakken@gmail.com","lat":59.914756774902,"lon":10.778153419495,"radius":0.25,"estatetype":"leilighet","price_min":2900000,"price_max":3900000,"area_min":30,"area_max":60,"consent":"2019-06-17T15:59:35+02:00","oppdragsaddresse":"Brinken 63","oppdragsnummer":16190145,"agent":"Katrine Solvåg","office":"Grünerløkka"},{"id":89741,"type":"searchagent","name":"Arnhild Sandbakken","email":"Arnhild.sandbakken@gmail.com","lat":59.910655975342,"lon":10.773662567139,"radius":0.25,"estatetype":"leilighet","price_min":2800000,"price_max":3800000,"area_min":40,"area_max":70,"consent":"2018-11-01T10:36:52+01:00","oppdragsaddresse":"Åkebergveien 28","oppdragsnummer":55180115,"agent":"Robin Rodahl","office":"Bjørvika / Gamle Oslo"},{"id":359286,"type":"searchagent","name":"Arnhild Sandbakken","email":"arnhild.sandbakken@gmail.com","lat":59.908222198486,"lon":10.772933959961,"radius":0.25,"estatetype":"leilighet","price_min":2800000,"price_max":3800000,"area_min":40,"area_max":70,"consent":"2019-07-08T15:48:29+02:00","oppdragsaddresse":"Klostergata 6","oppdragsnummer":55190096,"agent":"Henrik Jensen","office":"Bjørvika / Gamle Oslo"},{"id":359219,"type":"searchagent","name":"Thy Brenna","email":"thy.brenna@smartehjemas.no","lat":59.943565368652,"lon":10.951367378235,"radius":0.25,"estatetype":"næringstomt","price_min":40000000,"price_max":60000000,"area_min":0,"area_max":10,"consent":"2019-07-08T12:50:56+02:00","oppdragsaddresse":"Haneborgveien 5","oppdragsnummer":70190071,"agent":"Jannik Holm","office":"Kalbakken"},{"id":359191,"type":"searchagent","name":"Sigrid-Maria Brækken","email":"sigridmariabraekken@gmail.com","lat":59.926410675049,"lon":10.724902153015,"radius":0.25,"estatetype":"leilighet","price_min":4400000,"price_max":5900000,"area_min":50,"area_max":90,"consent":"2019-07-08T11:38:17+02:00","oppdragsaddresse":"Rosenborggata 10","oppdragsnummer":17180265,"agent":"Kjerstin Falkum","office":"Carl Berner"},{"id":341108,"type":"searchagent","name":"Mimmi Nguyen","email":"mimminguyen@gmail.com","lat":59.920726776123,"lon":10.774797439575,"radius":0.25,"estatetype":"leilighet","price_min":3700000,"price_max":5000000,"area_min":70,"area_max":110,"consent":"2019-05-08T20:18:54+02:00","oppdragsaddresse":"Sofienberggata 57E","oppdragsnummer":16190053,"agent":"Katrine Solvåg","office":"Grünerløkka"},{"id":245211,"type":"searchagent","name":"eva bjørn-hansen","email":"eva.simensen@gmail.com","lat":59.930183410645,"lon":10.720187187195,"radius":0.25,"estatetype":"leilighet","price_min":8400000,"price_max":10900000,"area_min":90,"area_max":140,"consent":"2018-02-12T12:47:47+01:00","oppdragsaddresse":"Hammerstads gate 14 A","oppdragsnummer":66180015,"agent":"Emil Månsson","office":"Torshov"},{"id":355598,"type":"searchagent","name":"valeria engelund","email":"valeriya_94@hotmail.com","lat":59.92985534668,"lon":10.797013282776,"radius":0.25,"estatetype":"leilighet","price_min":3100000,"price_max":4200000,"area_min":30,"area_max":60,"consent":"2019-06-23T21:13:40+02:00","oppdragsaddresse":"Lørenveien  56 A","oppdragsnummer":66190106,"agent":"Oscar André Halsen","office":"Torshov"},{"id":358349,"type":"searchagent","name":"Catrine Gustavsen","email":"Cg@itverket.no","lat":61.537090301514,"lon":12.197653770447,"radius":0.25,"estatetype":"hytte","price_min":1900000,"price_max":2600000,"area_min":50,"area_max":90,"consent":"2019-07-03T18:33:40+02:00","oppdragsaddresse":"Gnolla 233","oppdragsnummer":70190140,"agent":"Jannik Holm","office":"Kalbakken"},{"id":183212,"type":"searchagent","name":"Alex Hsi","email":"alexhsi.it@gmail.com","lat":59.94123,"lon":10.77389,"radius":0.25,"estatetype":"leilighet","price_min":2000000,"price_max":2800000,"area_min":20,"area_max":50,"consent":"2016-10-23T11:15:04+02:00","oppdragsaddresse":"Nils Huus` gate 4","oppdragsnummer":32160002,"agent":"Erik Danielsen","office":"Torshov"},{"id":182680,"type":"searchagent","name":"Alex Hsi","email":"alexhsi.it@gmail.com","lat":59.94104,"lon":10.77393,"radius":0.25,"estatetype":"leilighet","price_min":2500000,"price_max":3400000,"area_min":30,"area_max":60,"consent":"2016-10-16T20:15:14+02:00","oppdragsaddresse":"Nils Huus gate 2","oppdragsnummer":32160009,"agent":"Emil Månsson","office":"Torshov"},{"id":357906,"type":"searchagent","name":"Eline Garberg","email":"elinega88@gmail.com","lat":59.942375183105,"lon":10.763257026672,"radius":0.25,"estatetype":"leilighet","price_min":2100000,"price_max":2900000,"area_min":20,"area_max":50,"consent":"2019-07-02T11:42:35+02:00","oppdragsaddresse":"Maridalsveien 205","oppdragsnummer":66190110,"agent":"Eskil Næss Hagen","office":"Torshov"},{"id":358084,"type":"searchagent","name":"Kjetil Høie Hansen","email":"kjetil.h.hansen@gmail.com","lat":59.931114196777,"lon":10.782162666321,"radius":0.25,"estatetype":"leilighet","price_min":3000000,"price_max":4000000,"area_min":40,"area_max":70,"consent":"2019-07-02T20:50:30+02:00","oppdragsaddresse":"Schouterrassen 19","oppdragsnummer":66190098,"agent":"Oscar André Halsen","office":"Torshov"},{"id":215628,"type":"searchagent","name":"Monika Mielnik","email":"Monika.m.mielnik@gmail.com","lat":59.914237976074,"lon":10.782678604126,"radius":0.25,"estatetype":"leilighet","price_min":3200000,"price_max":4300000,"area_min":40,"area_max":70,"consent":"2017-08-07T00:49:20+02:00","oppdragsaddresse":"Normannsgata 69","oppdragsnummer":17170179,"agent":"Tanju Uysal","office":"Carl Berner"},{"id":235292,"type":"searchagent","name":"Monika Mielnik","email":"monika.m.mielnik@gmail.com","lat":59.915271759033,"lon":10.765661239624,"radius":0.25,"estatetype":"leilighet","price_min":3700000,"price_max":5000000,"area_min":50,"area_max":90,"consent":"2017-11-20T17:04:46+01:00","oppdragsaddresse":"Heimdalsgata 27 F","oppdragsnummer":16170328,"agent":"Bjørnar Mikkelsen","office":"Grünerløkka"},{"id":215632,"type":"searchagent","name":"Monika Mielnik","email":"Monika.m.mielnik@gmail.com","lat":59.939544677734,"lon":10.775356292725,"radius":0.25,"estatetype":"leilighet","price_min":3300000,"price_max":4400000,"area_min":40,"area_max":80,"consent":"2017-08-07T00:58:06+02:00","oppdragsaddresse":"Knud Graahs gate 1","oppdragsnummer":16170223,"agent":"Bjørnar Mikkelsen","office":"Grünerløkka"},{"id":350140,"type":"searchagent","name":"Monika Mielnik","email":"monika.m.mielnik@gmail.com","lat":59.93363571167,"lon":10.76265335083,"radius":0.25,"estatetype":"leilighet","price_min":4300000,"price_max":5700000,"area_min":40,"area_max":80,"consent":"2019-06-04T21:06:16+02:00","oppdragsaddresse":"Feddersens gate 7","oppdragsnummer":66190094,"agent":"Erik Bryn Johannessen","office":"Torshov"},{"id":357954,"type":"searchagent","name":"Eilen Pedersen","email":"eilen_p@hotmail.com","lat":59.827205657959,"lon":10.785166740417,"radius":0.25,"estatetype":"leilighet","price_min":2300000,"price_max":3200000,"area_min":50,"area_max":80,"consent":"2019-07-02T13:08:35+02:00","oppdragsaddresse":"Dyretråkket 33","oppdragsnummer":17190113,"agent":"Joakim Torp","office":"Carl Berner"},{"id":356527,"type":"searchagent","name":"Andreas Norstein","email":"andreasnorstein@gmail.com","lat":59.911933898926,"lon":10.789936065674,"radius":0.25,"estatetype":"leilighet","price_min":3300000,"price_max":4400000,"area_min":40,"area_max":80,"consent":"2019-06-26T14:26:20+02:00","oppdragsaddresse":"Ensjøveien 29 A","oppdragsnummer":66190095,"agent":"Eskil Næss Hagen","office":"Torshov"},{"id":357501,"type":"searchagent","name":"Andreas Norstein","email":"andreasnorstein@gmail.com","lat":59.93851852417,"lon":10.759001731873,"radius":0.25,"estatetype":"leilighet","price_min":3300000,"price_max":4400000,"area_min":40,"area_max":70,"consent":"2019-07-01T00:36:45+02:00","oppdragsaddresse":"Hammergata 18 A","oppdragsnummer":19190185,"agent":"Marcus Egeland","office":"Sagene"},{"id":357466,"type":"searchagent","name":"Nanna Aase  Henriksen","email":"nanna1706@gmail.com","lat":59.930370330811,"lon":10.773246765137,"radius":0.25,"estatetype":"leilighet","price_min":3800000,"price_max":5100000,"area_min":60,"area_max":100,"consent":"2019-06-30T21:00:14+02:00","oppdragsaddresse":"Vågebyveien 17","oppdragsnummer":17190114,"agent":"Torfinn Sørvang","office":"Carl Berner"},{"id":357380,"type":"searchagent","name":"Marte Nybakken","email":"Martemarie@mac.com","lat":59.927177429199,"lon":10.751655578613,"radius":0.25,"estatetype":"leilighet","price_min":2800000,"price_max":3800000,"area_min":40,"area_max":70,"consent":"2019-06-30T13:09:49+02:00","oppdragsaddresse":"Hauchs gate 6A","oppdragsnummer":66190103,"agent":"Oscar André Halsen","office":"Torshov"},{"id":357353,"type":"searchagent","name":"Lars Henriksen","email":"lars.henriksen@hotmail.no","lat":59.927177429199,"lon":10.751655578613,"radius":0.25,"estatetype":"leilighet","price_min":2800000,"price_max":3800000,"area_min":40,"area_max":70,"consent":"2019-06-30T10:50:02+02:00","oppdragsaddresse":"Hauchs gate 6A","oppdragsnummer":66190103,"agent":"Oscar André Halsen","office":"Torshov"},{"id":357226,"type":"searchagent","name":"Stig Hermann","email":"Stig.hermann@yahoo.no","lat":59.927177429199,"lon":10.751655578613,"radius":0.25,"estatetype":"leilighet","price_min":2800000,"price_max":3800000,"area_min":40,"area_max":70,"consent":"2019-06-29T09:53:46+02:00","oppdragsaddresse":"Hauchs gate 6A","oppdragsnummer":66190103,"agent":"Oscar André Halsen","office":"Torshov"},{"id":357191,"type":"searchagent","name":"Eivind Sundrehagen","email":"eivind@sundrehagen.no","lat":59.836353302002,"lon":10.873042106628,"radius":0.25,"estatetype":"fritidseiendom","price_min":1900000,"price_max":2700000,"area_min":70,"area_max":110,"consent":"2019-06-28T23:42:16+02:00","oppdragsaddresse":"Enebakkveien 695","oppdragsnummer":19190195,"agent":"Carl Uthus","office":"Sagene"},{"id":357187,"type":"searchagent","name":"Inga-Malene Huse","email":"Inga-Malene.Huse@outlook.com","lat":59.941387176514,"lon":10.774171829224,"radius":0.25,"estatetype":"leilighet","price_min":2900000,"price_max":3900000,"area_min":30,"area_max":60,"consent":"2019-06-28T23:00:28+02:00","oppdragsaddresse":"Amtmann Meinichs gate 17","oppdragsnummer":19190169,"agent":"Rebecca M. Madland","office":"Sagene"},{"id":178749,"type":"searchagent","name":"Nanna Skjei","email":"skjeina@gmail.com","lat":59.93866,"lon":10.76945,"radius":0.25,"estatetype":"leilighet","price_min":4600000,"price_max":6100000,"area_min":80,"area_max":120,"consent":"2016-09-11T17:07:03+02:00","oppdragsaddresse":"Åsengata 4 D","oppdragsnummer":19160234,"agent":"Erik Danielsen","office":"Sagene"},{"id":273551,"type":"searchagent","name":"Nanna Skjei","email":"skjeina@gmail.com","lat":59.881610870361,"lon":10.489338874817,"radius":0.25,"estatetype":"rekkehus","price_min":5500000,"price_max":7300000,"area_min":110,"area_max":160,"consent":"2018-06-11T09:23:19+02:00","oppdragsaddresse":"Rugdefaret 27A","oppdragsnummer":17180111,"agent":"Vidar Tangstad","office":"Carl Berner"},{"id":357081,"type":"searchagent","name":"Daniel Hoseinzade","email":"daniel.h.zade@hotmail.com","lat":59.918685913086,"lon":10.800881385803,"radius":0.25,"estatetype":"leilighet","price_min":3500000,"price_max":4700000,"area_min":50,"area_max":90,"consent":"2019-06-28T13:17:09+02:00","oppdragsaddresse":"Vallefaret 8","oppdragsnummer":70190139,"agent":"Thor Wæraas","office":"Kalbakken"},{"id":207478,"type":"searchagent","name":"Christine Jensen","email":"christineloekkejensen@hotmail.com","lat":59.928112030029,"lon":10.767013549805,"radius":0.25,"estatetype":"leilighet","price_min":3700000,"price_max":5000000,"area_min":50,"area_max":90,"consent":"2017-06-12T20:37:21+02:00","oppdragsaddresse":"Fagerheimgata 9 C","oppdragsnummer":17170036,"agent":"Kjerstin Falkum","office":"Carl Berner"},{"id":356943,"type":"searchagent","name":"CHRISTINE JENSEN","email":"christineloekkejensen@hotmail.com","lat":59.94132232666,"lon":10.775183677673,"radius":0.25,"estatetype":"leilighet","price_min":4900000,"price_max":6500000,"area_min":70,"area_max":110,"consent":"2019-06-28T08:24:21+02:00","oppdragsaddresse":"Nils Huus` gate 17","oppdragsnummer":66180173,"agent":"Oscar André Halsen","office":"Torshov"},{"id":356665,"type":"searchagent","name":"William Morris","email":"wmorris@live.no","lat":59.939529418945,"lon":10.750520706177,"radius":0.25,"estatetype":"leilighet","price_min":4100000,"price_max":5500000,"area_min":60,"area_max":100,"consent":"2019-06-27T07:57:34+02:00","oppdragsaddresse":"Uelands gate 69","oppdragsnummer":19190119,"agent":"Zehra Catak","office":"Sagene"},{"id":356638,"type":"searchagent","name":"Dragana  Andjelic","email":"drgnandjelic@yahoo.com","lat":59.927177429199,"lon":10.751655578613,"radius":0.25,"estatetype":"leilighet","price_min":2800000,"price_max":3800000,"area_min":40,"area_max":70,"consent":"2019-06-26T21:52:26+02:00","oppdragsaddresse":"Hauchs gate 6A","oppdragsnummer":66190103,"agent":"Oscar André Halsen","office":"Torshov"},{"id":356569,"type":"searchagent","name":"Karoline Michelsen","email":"karolinemich@hotmail.com","lat":59.939743041992,"lon":10.751497268677,"radius":0.25,"estatetype":"leilighet","price_min":2800000,"price_max":3800000,"area_min":30,"area_max":60,"consent":"2019-06-26T16:29:10+02:00","oppdragsaddresse":"Sandefjordgata 2E","oppdragsnummer":19190055,"agent":"Erik Danielsen","office":"Sagene"},{"id":334749,"type":"searchagent","name":"Line Cranner","email":"Linecranner@hotmail.com","lat":59.932651519775,"lon":10.767258644104,"radius":0.25,"estatetype":"leilighet","price_min":3100000,"price_max":4200000,"area_min":40,"area_max":70,"consent":"2019-04-14T10:32:51+02:00","oppdragsaddresse":"Anna Sethnes gate 4 C","oppdragsnummer":66190062,"agent":"Lene Brekken","office":"Torshov"},{"id":337125,"type":"searchagent","name":"Line Cranner","email":"Linecranner@hotmail.com","lat":59.93367767334,"lon":10.75060749054,"radius":0.25,"estatetype":"leilighet","price_min":3100000,"price_max":4200000,"area_min":40,"area_max":80,"consent":"2019-04-24T22:36:38+02:00","oppdragsaddresse":"Uelandsgate 61 j","oppdragsnummer":19190103,"agent":"Carl Uthus","office":"Sagene"},{"id":334728,"type":"searchagent","name":"Line Craner","email":"Linecranner@hotmail.com","lat":59.932804107666,"lon":10.781840324402,"radius":0.25,"estatetype":"leilighet","price_min":2900000,"price_max":3900000,"area_min":40,"area_max":70,"consent":"2019-04-14T01:40:31+02:00","oppdragsaddresse":"Bjørn Stallares vei 35","oppdragsnummer":19190083,"agent":"Erik Danielsen","office":"Sagene"},{"id":335082,"type":"searchagent","name":"Line Cranner","email":"Linecranner@hotmail.com","lat":59.932804107666,"lon":10.781840324402,"radius":0.25,"estatetype":"leilighet","price_min":2900000,"price_max":3900000,"area_min":40,"area_max":70,"consent":"2019-04-15T14:25:18+02:00","oppdragsaddresse":"Bjørn Stallares vei 35","oppdragsnummer":19190083,"agent":"Erik Danielsen","office":"Sagene"},{"id":339646,"type":"searchagent","name":"Line Cranner","email":"Linecranner@hotmail.com","lat":59.938369750977,"lon":10.756636619568,"radius":0.25,"estatetype":"leilighet","price_min":3400000,"price_max":4500000,"area_min":40,"area_max":80,"consent":"2019-05-03T23:18:11+02:00","oppdragsaddresse":"Mogata 24A","oppdragsnummer":19190073,"agent":"Zehra Catak","office":"Sagene"},{"id":337758,"type":"searchagent","name":"Line Cranner","email":"Linecranner@hotmail.com","lat":59.93367767334,"lon":10.75060749054,"radius":0.25,"estatetype":"leilighet","price_min":3100000,"price_max":4200000,"area_min":40,"area_max":80,"consent":"2019-04-26T22:59:09+02:00","oppdragsaddresse":"Uelandsgate 61 j","oppdragsnummer":19190103,"agent":"Carl Uthus","office":"Sagene"},{"id":351482,"type":"searchagent","name":"Line Cranner","email":"Linecranner@hotmail.com","lat":59.935699462891,"lon":10.766403198242,"radius":0.25,"estatetype":"leilighet","price_min":3200000,"price_max":4300000,"area_min":40,"area_max":80,"consent":"2019-06-10T12:15:09+02:00","oppdragsaddresse":"Krebs' gate 7 B","oppdragsnummer":66180095,"agent":"Lene Brekken","office":"Torshov"},{"id":353389,"type":"searchagent","name":"Line Cranner","email":"linecranner@hotmail.com","lat":59.931854248047,"lon":10.765927314758,"radius":0.25,"estatetype":"leilighet","price_min":3300000,"price_max":4500000,"area_min":40,"area_max":70,"consent":"2019-06-16T12:05:05+02:00","oppdragsaddresse":"Oskar Braatens gate 18","oppdragsnummer":66190086,"agent":"Lene Brekken","office":"Torshov"},{"id":353378,"type":"searchagent","name":"Line Cranner","email":"Linecranner@hotmail.com","lat":59.933246612549,"lon":10.766250610352,"radius":0.25,"estatetype":"leilighet","price_min":3300000,"price_max":4400000,"area_min":40,"area_max":70,"consent":"2019-06-16T10:50:21+02:00","oppdragsaddresse":"Torshovgata 15 A","oppdragsnummer":19190174,"agent":"Erik Danielsen","office":"Sagene"},{"id":353443,"type":"searchagent","name":"Line Cranner","email":"linecranner@hotmail.com","lat":59.934185028076,"lon":10.765253067017,"radius":0.25,"estatetype":"leilighet","price_min":3100000,"price_max":4200000,"area_min":40,"area_max":70,"consent":"2019-06-16T14:00:35+02:00","oppdragsaddresse":"Omsens gate 4","oppdragsnummer":19190158,"agent":"Zehra Catak","office":"Sagene"},{"id":352196,"type":"searchagent","name":"Line Cranner","email":"Linecranner@hotmail.com","lat":59.935699462891,"lon":10.766403198242,"radius":0.25,"estatetype":"leilighet","price_min":3200000,"price_max":4300000,"area_min":40,"area_max":80,"consent":"2019-06-12T00:03:41+02:00","oppdragsaddresse":"Krebs' gate 7 B","oppdragsnummer":66180095,"agent":"Lene Brekken","office":"Torshov"},{"id":269530,"type":"searchagent","name":"Kristin  Tandy","email":"kristintandy1@gmail.com","lat":59.934734344482,"lon":10.764914512634,"radius":0.25,"estatetype":"leilighet","price_min":2900000,"price_max":3900000,"area_min":30,"area_max":60,"consent":"2018-05-29T13:31:05+02:00","oppdragsaddresse":"Vogts gate 51","oppdragsnummer":19170138,"agent":"Helene Molle","office":"Sagene"},{"id":208265,"type":"searchagent","name":"Madeleine Tomtum","email":"M_ade96@hotmail.com","lat":59.94250869751,"lon":10.770712852478,"radius":0.25,"estatetype":"leilighet","price_min":3600000,"price_max":4900000,"area_min":50,"area_max":90,"consent":"2017-06-18T19:32:05+02:00","oppdragsaddresse":"Sandakerveien 79","oppdragsnummer":16170194,"agent":"Adrian Jensen","office":"Grünerløkka"},{"id":209431,"type":"searchagent","name":"Madeleine Tomtum","email":"M_ade96@hotmail.com","lat":59.943382263184,"lon":10.776391029358,"radius":0.25,"estatetype":"leilighet","price_min":3700000,"price_max":4900000,"area_min":50,"area_max":90,"consent":"2017-06-25T18:51:00+02:00","oppdragsaddresse":"Grefsenveien 43","oppdragsnummer":19170164,"agent":"Erik Danielsen","office":"Sagene"},{"id":355612,"type":"searchagent","name":"Christin Andreassen","email":"Christinmalen@gmail.com","lat":59.925968170166,"lon":10.767538070679,"radius":0.25,"estatetype":"leilighet","price_min":4900000,"price_max":6400000,"area_min":70,"area_max":110,"consent":"2019-06-23T22:21:40+02:00","oppdragsaddresse":"Gøteborggata 14 J","oppdragsnummer":16190081,"agent":"Bjørnar Mikkelsen","office":"Grünerløkka"},{"id":355507,"type":"searchagent","name":"Navid Ali","email":"naveedli@gmail.com","lat":59.96321105957,"lon":11.051312446594,"radius":0.25,"estatetype":"tomannsbolig","price_min":7100000,"price_max":9200000,"area_min":240,"area_max":330,"consent":"2019-06-23T13:22:38+02:00","oppdragsaddresse":"Storgata 75","oppdragsnummer":70190059,"agent":"Thor Wæraas","office":"Kalbakken"},{"id":355179,"type":"searchagent","name":"Elin Ryen","email":"ekirstir@online.no","lat":59.939529418945,"lon":10.774265289307,"radius":0.25,"estatetype":"leilighet","price_min":2600000,"price_max":3500000,"area_min":30,"area_max":60,"consent":"2019-06-21T10:09:09+02:00","oppdragsaddresse":"Hans Nielsen Hauges gate 32","oppdragsnummer":70190124,"agent":"Thor Wæraas","office":"Kalbakken"},{"id":355062,"type":"searchagent","name":"Inger Vikre","email":"iav@sector.no","lat":59.930698394775,"lon":10.733288764954,"radius":0.25,"estatetype":"leilighet","price_min":3800000,"price_max":5000000,"area_min":50,"area_max":80,"consent":"2019-06-20T16:19:18+02:00","oppdragsaddresse":"Thereses gate 11A","oppdragsnummer":66190102,"agent":"Erik Bryn Johannessen","office":"Torshov"},{"id":354905,"type":"searchagent","name":"Kristian Ertesvåg Johnsen","email":"ke_johnsen@outlook.com","lat":59.914756774902,"lon":10.778153419495,"radius":0.25,"estatetype":"leilighet","price_min":2900000,"price_max":3900000,"area_min":30,"area_max":60,"consent":"2019-06-20T00:44:51+02:00","oppdragsaddresse":"Brinken 63","oppdragsnummer":16190145,"agent":"Katrine Solvåg","office":"Grünerløkka"},{"id":354454,"type":"searchagent","name":"sanjeevan siva","email":"poyal@hotmail.com","lat":59.96321105957,"lon":11.051312446594,"radius":0.25,"estatetype":"tomannsbolig","price_min":7100000,"price_max":9200000,"area_min":240,"area_max":330,"consent":"2019-06-18T22:03:25+02:00","oppdragsaddresse":"Storgata 75","oppdragsnummer":70190059,"agent":"Thor Wæraas","office":"Kalbakken"},{"id":354465,"type":"searchagent","name":"Marion Bakken","email":"m.gurgoz@gmail.com","lat":59.951206207275,"lon":10.878018379211,"radius":0.25,"estatetype":"leilighet","price_min":2600000,"price_max":3500000,"area_min":60,"area_max":100,"consent":"2019-06-18T22:44:52+02:00","oppdragsaddresse":"Nordlisletta 11","oppdragsnummer":70190134,"agent":"Thor Wæraas","office":"Kalbakken"},{"id":301972,"type":"searchagent","name":"Rauf invest  As","email":"Rauf.invest@gmail.com","lat":59.949356079102,"lon":11.021922111511,"radius":0.25,"estatetype":"enebolig","price_min":10000000,"price_max":14000000,"area_min":270,"area_max":360,"consent":"2018-08-28T21:04:12+02:00","oppdragsaddresse":"Strømsalleen 2","oppdragsnummer":55170028,"agent":"Terje Rindal","office":"Bjørvika / Gamle Oslo"},{"id":351626,"type":"searchagent","name":"Esten Jacobsen","email":"esten.mj@gmail.com","lat":59.937976837158,"lon":10.757296562195,"radius":0.25,"estatetype":"leilighet","price_min":5000000,"price_max":6600000,"area_min":60,"area_max":100,"consent":"2019-06-10T18:41:25+02:00","oppdragsaddresse":"Bentsegata 2 B","oppdragsnummer":19190112,"agent":"Zehra Catak","office":"Sagene"},{"id":354046,"type":"searchagent","name":"Erica Khuong","email":"ericakhuong@yahoo.com","lat":59.96321105957,"lon":11.051312446594,"radius":0.25,"estatetype":"tomannsbolig","price_min":7100000,"price_max":9200000,"area_min":240,"area_max":330,"consent":"2019-06-18T07:30:58+02:00","oppdragsaddresse":"Storgata 75","oppdragsnummer":70190059,"agent":"Thor Wæraas","office":"Kalbakken"},{"id":353611,"type":"searchagent","name":"Cathrine  Holth","email":"catbholth@hotmail.com","lat":59.944713592529,"lon":10.77751159668,"radius":0.25,"estatetype":"leilighet","price_min":2400000,"price_max":3300000,"area_min":20,"area_max":50,"consent":"2019-06-17T00:03:16+02:00","oppdragsaddresse":"Grefsenveien 51","oppdragsnummer":19190023,"agent":"Rebecca M. Madland","office":"Sagene"},{"id":353365,"type":"searchagent","name":"May Hætta","email":"Mayhaetta@gmail.com","lat":59.932586669922,"lon":10.762160301208,"radius":0.25,"estatetype":"leilighet","price_min":3300000,"price_max":4500000,"area_min":50,"area_max":80,"consent":"2019-06-16T09:47:09+02:00","oppdragsaddresse":"Oskar Braatens gate 10","oppdragsnummer":66190066,"agent":"Erik Bryn Johannessen","office":"Torshov"},{"id":88886,"type":"searchagent","name":"Rolf Strand","email":"rolf.strand@gmail.com","lat":59.930561065674,"lon":10.748445510864,"radius":0.25,"estatetype":"leilighet","price_min":5800000,"price_max":7600000,"area_min":80,"area_max":130,"consent":"2018-11-03T16:40:27+01:00","oppdragsaddresse":"Uelands gate 52","oppdragsnummer":16180230,"agent":"Bjørnar Mikkelsen","office":"Grünerløkka"},{"id":353352,"type":"searchagent","name":"Rolf Strand","email":"rolf.strand@gmail.com","lat":59.931812418892,"lon":10.759476708264,"radius":1,"estatetype":"leilighet","price_min":2000000,"price_max":4000000,"area_min":39,"area_max":70,"consent":"2019-06-16T00:05:37+02:00"},{"id":174964,"type":"searchagent","name":"Ann Kristin Grinden","email":"ak.grinden@gmail.com","lat":59.93041,"lon":10.76971,"radius":0.25,"estatetype":"leilighet","price_min":2200000,"price_max":3000000,"area_min":20,"area_max":50,"consent":"2016-08-15T12:44:13+02:00","oppdragsaddresse":"Fagerheimgata 18","oppdragsnummer":19160206,"agent":"Erik Danielsen","office":"Sagene"},{"id":353251,"type":"searchagent","name":"ANN GRINDEN","email":"ak.grinden@gmail.com","lat":59.913078308105,"lon":10.7678565979,"radius":0.25,"estatetype":"leilighet","price_min":2900000,"price_max":3900000,"area_min":50,"area_max":80,"consent":"2019-06-15T12:06:31+02:00","oppdragsaddresse":"Enerhauggata 3","oppdragsnummer":19190088,"agent":"Zehra Catak","office":"Sagene"},{"id":352945,"type":"searchagent","name":"Anne Grete Vindstad","email":"agvindstad@online.no","lat":59.945175170898,"lon":10.766914367676,"radius":0.25,"estatetype":"leilighet","price_min":4200000,"price_max":5600000,"area_min":50,"area_max":80,"consent":"2019-06-13T21:30:10+02:00","oppdragsaddresse":"Fernanda Nissens gate 1D","oppdragsnummer":19190024,"agent":"Erik Danielsen","office":"Sagene"},{"id":352947,"type":"searchagent","name":"Anne Grete Vindstad","email":"agvindstad@online.no","lat":59.945175170898,"lon":10.766914367676,"radius":0.25,"estatetype":"leilighet","price_min":4200000,"price_max":5600000,"area_min":50,"area_max":80,"consent":"2019-06-13T21:30:28+02:00","oppdragsaddresse":"Fernanda Nissens gate 1D","oppdragsnummer":19190024,"agent":"Erik Danielsen","office":"Sagene"},{"id":352907,"type":"searchagent","name":"Kristian Skjerve","email":"kristian.skjerve@hotmail.com","lat":59.945175170898,"lon":10.766914367676,"radius":0.25,"estatetype":"leilighet","price_min":4200000,"price_max":5600000,"area_min":50,"area_max":80,"consent":"2019-06-13T19:11:20+02:00","oppdragsaddresse":"Fernanda Nissens gate 1D","oppdragsnummer":19190024,"agent":"Erik Danielsen","office":"Sagene"},{"id":169975,"type":"searchagent","name":"Emilie Olsson Engh","email":"emilie_engh@hotmail.com","lat":59.94238,"lon":10.76326,"radius":0.25,"estatetype":"leilighet","price_min":1800000,"price_max":2400000,"area_min":20,"area_max":50,"consent":"2016-06-20T13:53:46+02:00","oppdragsaddresse":"Maridalsveien 205","oppdragsnummer":19160148,"agent":"Emil Månsson","office":"Sagene"},{"id":140688,"type":"searchagent","name":"Emilie Olsson Engh","email":"emilie_engh@hotmail.com","lat":null,"lon":10.76326,"radius":0.25,"estatetype":"leilighet","price_min":2300000,"price_max":2300000,"area_min":20,"area_max":50,"consent":"2016-06-13T14:06:27+02:00","oppdragsaddresse":"Maridalseveien 205","oppdragsnummer":17160127,"agent":"Joakim Torp","office":"Carl Berner"},{"id":352755,"type":"searchagent","name":"Marianne Skiaker","email":"Marianne16.02@hotmail.com","lat":59.939376831055,"lon":10.819047927856,"radius":0.25,"estatetype":"leilighet","price_min":3100000,"price_max":4200000,"area_min":50,"area_max":90,"consent":"2019-06-13T13:38:28+02:00","oppdragsaddresse":"Krokliveien 54","oppdragsnummer":70190101,"agent":"Marius Wang","office":"Kalbakken"},